PMF_PLACE,LONG,LAT,ADDR,EMR,CLINIC
PRINCE GEORGE,-122.755411,53.9085702,512 - 1669 VICTORIA STREET,Accuro,NA
COQUITLAM,-122.7551973,49.2935033,203 - 3387 DAVID AVENUE,Oscar Nerd,FOOTHILLS MEDICAL CLINIC
VANCOUVER,-123.1259148,49.2611413,10TH FL - 2775 LAUREL STREET,Accuro,HAEMATOLOGY AND BMT PROGRAM
VICTORIA,-123.3228272,48.4324038,309 - 1990 FORT STREET,Accuro,NA
VANCOUVER,-123.0923834,49.2815095,101 - 533 EAST HASTINGS STREET,Intrahealth VCH,SHEWAY MATERNITY SERV
VICTORIA,-123.3986709,48.4492705,208 - 2951 TILLICUM ROAD,Oscar,NA
KAMLOOPS,-120.329944,50.6716033,101 - 474 COLUMBIA STREET,Accuro,NA
PENDER ISLAND,-123.267056,48.7652162,5715 CANAL ROAD,Osler,PENDER ISLAND MEDICAL CENTRE
POWELL RIVER,-124.5202068,49.8456395,4794 JOYCE AVENUE,Wolf,THE MEDICAL CLINIC ASSOCIATES
CAMPBELL RIVER,-125.2499777,50.0283494,4 - 1330 DOGWOOD STREET,Oscar West,NA
TERRACE,-128.5946695,54.5098694,2715 TETRAULT STREET,NH MOIS,SLEEPING BEAUTY MEDICAL CLINIC
PORT ALBERNI,-124.801326,49.2513001,1 - 4565 WALLACE ST,Osler,NA
VANCOUVER,-123.1262048,49.2455931,KO - 134 - 4480 OAK STREET,Launchpad,PAEDIATRIC UROLOGY
BURNABY,-123.0165975,49.2488432,3935 KINCAID STREET,Launchpad,GERIATRIC MENTAL HEALTH
BRENTWOOD BAY,-123.4671024,48.581384,3 BOATRAMP ROAD,Launchpad,NA
RICHMOND,-123.1482094,49.1692939,560 - 6091 GILBERT ROAD,IntraHealth,RICHMOND HEALTH SCIENCES CENTRE
VICTORIA,-123.3337925,48.4449543,270 - 1641 HILLSIDE AVENUE,Osler,LANSDOWNE PROFFESSIONAL CENTRE
COMOX,-124.9255823,49.6718759,102 - 1757 BEAUFORT AVENUE,Launchpad,NA
SALMON ARM,-119.2792192,50.7039663,102 - 571 6TH STREET NE,MedAccess,SHUSWAP FAMILY PRACTICE
VANCOUVER,-123.1259148,49.2611413,8109 - 2775 LAUREL STREET,Plexia,NA
SIDNEY,-123.3994188,48.6476096,2425A BEVAN AVENUE,Osler,NA
LANGLEY,-122.6670334,49.1584632,7 - 8590 200TH STREET,Intrahealth,HAPPY FACE MEDICAL CLINIC
PORT ALBERNI,-124.7917599,49.2639573,102 - 3949 MAPLE WAY,Osler,ALBERNI FAMILY MEDICAL CLINIC
CAMPBELL RIVER,-125.2411602,50.0071696,277 EVERGREEN ROAD,Oscar West,ALDER MEDICAL CENTRE
BURNABY,-122.9487637,49.2196208,2 - 7398 EDMONDS STREET,Oscar,NA
VANCOUVER,-123.0917936,49.2836823,3RD FLR - 111 PRINCESS AVENUE,Oscar West,ALEXANDER STREET COMMUNITY TRANSITIONAL PROGRAM
SURREY,-122.8428948,49.1745321,103 - 13710 94A AVENUE,Accuro,NA
COQUITLAM,-122.7954894,49.2834727,102 - 1173 THE HIGH STREET,MedAccess,EAGLE RIDGE MEDICAL CLINIC
SALT SPRING ISLAND,-123.5080333,48.8598826,101-323 LOWER GANGES ROAD,Oscar Nerd,NA
LANGLEY,-122.6114124,49.096327,303 - 22112 52ND AVENUE,IntraHealth,LANGLEY PRIMARY HEALTH
VANCOUVER,-123.1267045,49.2448408,F2 -  4500 OAK STREET,Launchpad,CHRONIC PELVIC PAIN
KELOWNA,-119.490148,49.8626485,104 - 3040 TUTT STREET,Osler,NA
NANAIMO,-123.9330141,49.1646557,103 - 650 SOUTH TERMINAL AVENUE,IntraHealth,MEDICAL ARTS
COMOX,-124.9255823,49.6718759,202 - 1757 BEAUFORT AVENUE,Oscar,WHITE WAVE MEDICAL
CAMPBELL RIVER,-125.2462899,50.0116464,110 - 520 2ND AVENUE,Oscar West,GENERAL INTERNAL MEDICINE
TERRACE,-128.5911069,54.5189215,500 - 4634 PARK AVENUE,Launchpad,TERRACE PRENATAL CLINIC
NANAIMO,-123.9723967,49.1831307,10 - 1599 DUFFERIN CRESCENT,Accuro,NA
VANCOUVER,-123.1275058,49.2784866,770 - 1190 HORNBY STREET,Accuro,PACIFIC GASTROENTEROLOGY ASSOCIATES
SURREY,-122.7984382,49.0311297,200 - 15331 16TH AVE,IntraHealth,HILLTOP MEDICAL CENTRE
VANCOUVER,-123.1259148,49.2611413,10TH FL - 2775 LAUREL STREET,Accuro,HAEMATOLOGY AND BMT PROGRAM
NEW WESTMINSTER,-122.8933951,49.2253096,110 - 245 EAST COLUMBIA STREET,Accuro,NA
PORT MCNEILL,-127.0782247,50.5836711,PO BOX 400,Intrahealth,PORT MCNEILL MEDICAL CLINIC
KELOWNA,-119.4921002,49.8622772,202 - 436 CEDAR AVE,iClinic,NEUROSLEEP CLINIC
VICTORIA,-123.3336707,48.4681724,230 - 1555 MCKENZIE AVENUE,Plexia,NA
BURNABY,-123.0194515,49.2499925,3809 SUNSET STREET,Plexia,BURNABY GYNECOLOGY CLINIC
NAKUSP,-117.7979456,50.2383921,PO BOX 159 - 84 BROADWAY,Wolf,SADDLE MOUNTAIN MEDICAL CLINIC
WHITE ROCK,-122.7945119,49.0295511,101 - 15451 RUSSELL AVENUE,IntraHealth,WHITE ROCK MEDICAL
WHITE ROCK,-122.7945119,49.0295511,101 - 15451 RUSSELL AVENUE,IntraHealth,WHITE ROCK MEDICAL
KAMLOOPS,-120.329944,50.6716033,203 - 474 COLUMBIA STREET,Osler,474 FAMILY MEDICINE
SURREY,-122.8405364,49.174526,302 - 13798 94A AVENUE,Plexia,NA
COQUITLAM,-122.7917692,49.2786325,212 - 3030 LINCOLN AVENUE,McKeever Wizardry,NA
KAMLOOPS,-120.3490578,50.6636177,4 - 1380 SUMMIT DRIVE,MedAccess,SUMMIT MEDICAL CLINIC
KELOWNA,-119.4921002,49.8622772,201 - 436 CEDAR AVENUE,Accuro,KELOWNA DERMATOLOGY INC
COMOX,-124.9230016,49.6720753,100 - 1695 COMOX AVENUE,Wolf,COMOX MEDICAL CLINIC
KELOWNA,-119.4537534,49.8845657,101 - 1912 ENTERPRISE WAY,Wolf,MILL CREEK FAMILY MEDICAL
SURREY,-122.8027414,49.1053336,103 - 15157 HIGHWAY 10,Wolf,PANORAMA VILLAGE MEDICAL CLINIC
BURNABY,-123.0165975,49.2488432,3935 KINCAID ST,Launchpad,DEPT OF CARDIOLOGY
VANCOUVER,-123.1009482,49.2496324,3980 MAIN STREET,Oscar Nerd,MIDWIFERY GROUP
VANCOUVER,-123.1251268,49.2636604,140 - 943 WEST BROADWAY,Launchpad,PACIFIC REHAB MEDICAL
VICTORIA,-123.3228272,48.4324038,205 - 1990 FORT STREET,Accuro,NA
DUNCAN,-123.7081361,48.7857933,201 - 2763 BEVERLY STREET,Plexia,BEVERLY MEDICAL CLINIC
SHAWNIGAN LAKE,-123.6214589,48.653366,PO BOX 240,MedAccess,2749 DUNDAS ROAD
VANCOUVER,-123.1210594,49.2630115,1317 - 750 WEST BROADWAY,MedAccess,NA
SURREY,-122.8455789,49.1937839,10517 KING GEORGE BOULEVARD,Launchpad,PARK CITY CLINIC
CAMPBELL RIVER,-125.2462899,50.0116464,110-520 2ND AVE,Oscar West,NA
NANAIMO,-123.9730982,49.1828239,105 - 1621 DUFFERIN CRESCENT,Accuro,NA
NEW WESTMINSTER,-122.9202672,49.2131559,140 - 555 6TH STREET,Accuro,CBI CARE POINT WESTMINSTER MALL
CHEMAINUS,-123.7163167,48.9262953,9892 ESPLANADE STREET,MedAccess,CHEMAINUS MEDICAL CLINIC
VICTORIA,-123.327759,48.4322939,1952 BAY STREET,Launchpad,RJH GERIATRICS
ABBOTSFORD,-122.3252165,49.0527908,204 - 32450 SIMON AVENUE,Osler,WINDERMERE MEDICAL CLINIC
NEW WESTMINSTER,-122.8933951,49.2253096,203 - 245 EAST COLUMBIA STREET,Plexia,NA
TOFINO,-125.9072416,49.151284,PO BOX 189 - 220 1ST ST,Wolf,TONQUIN MEDICAL CLINIC
VANCOUVER,-123.1267045,49.2448408,C234 - 4500 OAK STREET,Launchpad,DEPARTMENT OF MEDICAL GENETICS
PORT MCNEILL,-127.0782247,50.5836711,PO BOX 400 - 2161 MCNEILL ROAD,IntraHealth,PORT MCNEILL MEDICAL CLINIC
VICTORIA,-123.3647222,48.4283334,PO BOX 1700 0 STN FORCES,Launchpad,MEDICAL REFERALS CLERK CFB BASE HOSPITAL
VANCOUVER,-123.0918041,49.2832953,569 POWELL STREET,Intrahealth VCH,DOWNTOWN COMMUNITY CLINIC
CAMPBELL RIVER,-125.243085,50.0113996,360 2ND AVENUE,Oscar West,HILLSIDE MEDICAL
PORT COQUITLAM,-122.7550096,49.2728127,210 - 1465 SALISBURY AVENUE,Oscar West,BURKE MOUNTAIN MEDICAL
MISSION,-122.3252477,49.1337683,107 - 32471 LOUGHEED HWY,Osler,MISSION HILLS CLINIC
DUNCAN,-123.7081361,48.7857933,201 - 2763 BEVERLEY STREET,MedAccess,BEVERLY MEDICAL CLINIC
GALIANO,-123.3207873,48.8714769,SITE 4 COMP19 RR1 - 908 BURRILL RD,Wolf,GALIANO HEALTH CARE CENTRE
BURNABY,-122.8959168,49.2510397,145 - 9855 AUSTIN AVENUE,Launchpad,LOUGHEED MEDICAL CLINIC
RICHMOND,-123.1482094,49.1692939,310 - 6091 GILBERT ROAD,Plexia,NA
VICTORIA,-123.3524606,48.4254293,305-1120 YATES ST,Launchpad,ATTN:  L BULINCKX
VICTORIA,-123.3749103,48.4566559,3544 BLANSHARD STREET,Osler,SAANICH PLAZA MEDICAL CLINIC
VANCOUVER,-123.2442035,49.2648819,S169 - 2211 WESBROOK MALL,Plexia,NA
PENTICTON,-119.5781744,49.482897,577 CARMI AVENUE,MedAccess,NA
LANGLEY,-122.6733484,49.1179171,19851 WILLOWBROOK DRIVE,Launchpad,VALLEY CENTRE MEDICAL CLINIC
VICTORIA,-123.4107143,48.4294853,3 - 1153 ESQUIMALT ROAD,Intrahealth,ESQUIMALT MEDICAL CLINIC
PRINCE GEORGE,-122.755411,53.9085702,212 - 1669 VICTORIA STREET,MOIS,NA
SIDNEY,-123.3994157,48.6474231,2425 BEVAN AVENUE,Osler,NA
NANAIMO,-124.0327569,49.2206941,6205 OLIVER ROAD,Launchpad,NA
VICTORIA,-123.3527566,48.4288186,301 - 1711 COOK ST,Oscar West,NA
NEW WESTMINSTER,-122.8933071,49.2260098,410 - 301 EAST COLUMBIA STREET,Plexia,NA
RICHMOND,-123.1464747,49.1687434,7000 WESTMINSTER HIGHWAY,Launchpad,CHILD HEALTH CENTRE
VICTORIA,-123.327759,48.4322939,1952 BAY STREET,Accuro,RJH CLINIC 5 OPTHAMOLOGY
VICTORIA,-123.3524606,48.4254293,107 - 1120 YATES STREET,Oscar Nerd,MIDWIVES COLLECTIVE
VICTORIA,-123.3293646,48.4294305,1823 FORT STREET,MedAccess,JUBILEE CLINIC PHYSICIANS
PRINCE GEORGE,-122.7661613,53.9129136,4 - 1230 ALWARD STREET,MOIS,NA
MAPLE RIDGE,-122.5997574,49.2199067,600 - 22470 DEWDNEY TRUNK ROAD,MedAccess,NA
CAMPBELL RIVER,-125.2411602,50.0071696,277 EVERGREEN ROAD,Oscar West,ALDER MEDICAL CENTRE
SURREY,-122.8887565,49.1517382,101 - 8181 120A STREET,Accuro,NA
COMOX,-124.9230016,49.6720753,100 - 1695 COMOX AVENUE,Wolf,COMOX MEDICAL CLINIC
NORTH VANCOUVER,-123.0744768,49.3217918,101 - 145 15TH ST WEST,Plexia,NA
NANAIMO,-123.9345877,49.1606966,102 - 55 VICTORIA ROAD,MOIS,NA
VANCOUVER,-123.1259148,49.2611413,2775 LAUREL STREET - 7TH FLR,iClinic,THE LUNG CENTRE DIAMOND HEALTH CARE CNTR
VANCOUVER,-123.1165444,49.262936,731 - 550 WEST BROADWAY,IntraHealth,HIGHROADS MEDICAL CLINIC
QUESNEL,-122.4997093,52.9816714,543 FRONT STREET,Osler,NA
SURREY,-122.7984382,49.0311297,200 - 15331 16TH AVE,IntraHealth,HILLTOP MEDICAL CENTRE
SURREY,-122.7984342,49.1052415,108-15325 56TH AVENUE,Oscar Nerd,SULLIVAN SQUARE MEDICAL
VICTORIA,-123.3747387,48.4564346,104 - 3551 BLANSHARD STREET,Accuro,REBALANCE MD
VICTORIA,-123.3726658,48.5294888,135 - 5325 CORDOVA BAY,Oscar Nerd,NA
VICTORIA,-123.3528931,48.4246916,203 - 1121 YATES STREET,Plexia,SURGICAL SERVICES UROLOGY
CAMPBELL RIVER,-125.2411602,50.0071696,277 EVERGREEN ROAD,Oscar West,ALDER MEDICAL CENTRE
COMOX,-124.9255823,49.6718759,101 - 1757 BEAUFORT AVENUE,Plexia,OCEAN VIEW WOMEN'S CLINIC
VANCOUVER,-123.1210594,49.2630115,1317 - 750 WEST BROADWAY,MedAccess,NA
NORTH VANCOUVER,-123.0744768,49.3217918,213 - 145 WEST 15TH STREET,Plexia,NA
COMOX,-124.9255823,49.6718759,201 - 1757 BEAUFORT AVENUE,MedAccess,SEA COVE MEDICAL CLINIC
NANAIMO,-123.9730982,49.1828239,205 - 1621 DUFFERIN CRESCENT,IntraHealth,MILLSTONE MEDICAL CENTRE
VICTORIA,-123.4985025,48.4480526,107 - 755 GOLDSTREAM AVENUE,Wolf,WESTWIND MEDICAL CLINIC
NORTH VANCOUVER,-123.0744768,49.3217918,101 - 145 15TH ST WEST,Plexia,NA
PORT HARDY,-127.5024595,50.7210678,9140 GRANVILLE STREET,Intrahealth,PORT HARDY PRIMARY HEALTH CARE CENTRE
SURREY,-122.7390628,49.1043761,150 - 17475 56TH AVENUE,Oscar,BRICKYARD MEDICAL CLINIC
RICHMOND,-123.1830756,49.1267089,204 - 3811 CHATHAM STREET,IntraHealth,STEVESTON MEDICAL CLINIC
VICTORIA,-123.3331826,48.4672493,218 - 3930 SHELBOURNE STREET,Osler,NA
VANCOUVER,-123.1222135,49.28892,SUITE 500 - 1199 WEST HASTINGS STREET,Launchpad,IMA SOLUTIONS
VICTORIA,-123.3353305,48.4262891,302 - 1625 OAK BAY AVENUE,Accuro,NA
KELOWNA,-119.4911315,49.8847407,564 LEON AVENUE,Accuro,KELOWNA GI ASSOCIATES
COURTENAY,-124.9944659,49.6860442,201 - 1350 ENGLAND AVENUE,IntraHealth,COURTENAY MEDICAL ASSOCIATES
VICTORIA,-123.4085666,48.4509493,2823 DYSART ROAD,Oscar,NA
BURNABY,-122.9672993,49.2802732,6548 EAST HASTINGS STREET,Oscar,KENSINGTON MEDICAL CLINIC
VICTORIA,-123.3337925,48.4449543,340 - 1641 HILLSIDE AVENUE,Accuro,NA
DELTA,-123.0618464,49.0860389,5800 MOUNTAINVIEW BLVD,Launchpad,DELTA HOSPITAL - HOSPITALIST
KELOWNA,-119.490148,49.8626485,203 - 3040 TUTT STREET,Accuro,NA
NANAIMO,-123.9330141,49.1646557,103 - 650 SOUTH TERMINAL AVENUE,IntraHealth,MEDICAL ARTS CENTRE
SURREY,-122.7984382,49.0311297,200 - 15331 16TH AVE,IntraHealth,HILLTOP MEDICAL CENTRE
DUNCAN,-123.7080793,48.7783306,170 CRAIG ST,Oscar Nerd,COWICHAN MIDWIFERY GROUP
VICTORIA,-123.4707503,48.4414961,201 - 1910 SOOKE RD,Launchpad,MD ESTHETICS
SUMMERLAND,-119.677319,49.601239,"PO BOX 460, 100 - 13009 ROSEDALE AVENUE",MedAccess,ROSEDALE MEDICAL CLINIC
RICHMOND,-123.1471647,49.1706805,201 - 7031 WESTMINSTER HWY,Plexia,NA
CHILLIWACK,-121.9620983,49.167376,101 - 45625 HODGINS AVENUE,Oscar West,NA
PORT COQUITLAM,-122.7770807,49.2611585,1 - 2185 WILSON AVENUE,IntraHealth,WILSON CENTRE FAMILY PRACTICE
SALTSPRING ISLAND,-123.5104388,48.8633143,101 - 164 KINGS LANE,Oscar Nerd,KINGS LANE MEDICAL CLINIC
VANCOUVER,-123.1208651,49.262601,K - 2550 WILLOW STREET,Plexia,EYE CARE CENTRE
NORTH VANCOUVER,-122.9513122,49.3265115,4313 GALLANT AVENUE,Oscar West,DEEP COVE MEDICAL CLINIC
RICHMOND,-123.1482094,49.1692939,750 - 6091 GILBERT ROAD,Plexia,NA
COURTENAY,-124.9969041,49.6885853,UNIT E - 310 8TH STREET,IntraHealth,VALLEY CARE MEDICAL
VANCOUVER,-123.1259148,49.2611413,10TH FL - 2775 LAUREL STREET,Accuro,HAEMATOLOGY AND BMT PROGRAM
DUNCAN,-123.7016451,48.7778858,350 FESTUBERT STREET,MedAccess,FESTUBERT FAMILY PRACTICE
RICHMOND,-123.1414817,49.1692326,1ST FLR-7333 GOLLNER AVE,Launchpad,MINORU RESIDENCE
DUNCAN,-123.7259253,48.7836505,3106 GIBBINS ROAD,Launchpad,NA
COURTENAY,-124.9991908,49.6916823,318B DUNCAN AVENUE,Launchpad,NA
VANCOUVER,-123.1289966,49.2805979,533 - 1081 BURRARD ST,Intrahealth VCH,ST PAULS HOSPITAL
MISSION,-122.3334078,49.1316221,32136 LOUGHEED HIGHWAY,Wolf,MISSION OAKS MEDICAL CENTRE
VERNON,-119.2699496,50.2655739,205 - 2903 32ND AVENUE,Wolf,LIGHTHOUSE MEDICAL CLINIC
WEST VANCOUVER,-123.1581896,49.3278535,250 16TH STREET,Wolf,AMBLESIDE MEDICAL
NANAIMO,-123.9730982,49.1828239,301-1621 DUFFERIN CRES,Accuro,NA
QUALICUM BEACH,-124.4456315,49.3461809,173 FERN ROAD WEST,Wolf,NA
NANAIMO,-123.9330141,49.1646557,103 - 650 SOUTH TERMINAL AVENUE,Intrahealth,MEDICAL ARTS CENTRE
VICTORIA,-123.3320778,48.4612246,230 - 1590 CEDAR HILL X ROAD,Oscar,NA
PORT MCNEILL,-127.0782247,50.5836711,PO BOX 400,Intrahealth,PORT MCNEILL MEDICAL CLINIC
VICTORIA,-123.3641797,48.4681421,101 - 3960 QUADRA STREET,Osler,ISLAND SEXUAL HEALTH
DUNCAN,-123.7092826,48.779573,103 - 149 INGRAM STREET,MedAccess,INGRAM FAMILY PRACTICE
CHILLIWACK,-121.9590557,49.1239478,100F -  6640 VEDDER ROAD,Oscar Nerd,BRODIE AND BASSON CLINIC
PRINCE GEORGE,-122.755411,53.9085702,316 - 1669 VICTORIA STREET,MOIS,NA
VICTORIA,-123.3293204,48.4327898,2335 RICHMOND AVENUE,Launchpad,RJH GERIATRICS
VANCOUVER,-123.0942647,49.2815331,449 EAST HASTINGS STREET,Oscar West,VANCOUVER NATIVE HEALTH
NANAIMO,-123.9604033,49.187537,206 - 1650 TERMINAL AVENUE,Plexia,NA
NORTH VANCOUVER,-123.0718856,49.3181729,110 - 1100 LONSDALE AVENUE,IntraHealth,NORTH VANCOUVER MEDICAL
VANCOUVER,-123.1715986,49.264375,200 - 2475 BAYSWATER STREET,Oscar West,NA
NORTH VANCOUVER,-123.0725123,49.3184531,300 - 1133 LONSDALE AVENUE,IntraHealth,NORTH SHORE MEDICAL GROUP
VANCOUVER,-123.1210594,49.2630115,711-750 W. BROADWAY,BCCA,NA
SALTSPRING,-123.4857594,48.8646162,258 EAGLE RIDGE DRIVE,MedAccess,NA
NEW WESTMINSTER,-122.8933071,49.2260098,302 - 301 EAST COLUMBIA STREET,Accuro,NA
DUNCAN,-123.7102883,48.7790178,100 - 190 INGRAM STREET,Accuro,NA
QUALICUM BEACH,-124.4474687,49.3465998,703 BEACH ROAD,Osler,BEACH MEDICAL CLINIC
VICTORIA,-123.4264531,48.4475028,205 - 1497 ADMIRALS ROAD,Oscar Nerd,GROW CLINIC
VICTORIA,-123.4320773,48.4666982,1 HOSPITAL WAY,Launchpad,VICTORIA GENERAL HOSP - PEDIATRIC ICU
VICTORIA,-123.3724807,48.415034,530 SIMCOE,Launchpad,BECKLEY FARM LODGE
NANAIMO,-123.9618898,49.1852149,1450 WADDINGTON ROAD,MedAccess,ANCHOR FAMILY MEDICAL CLINIC
SICAMOUS,-118.9896685,50.8364305,PO BOX 715 - 217 FINLAYSON STREET,MedAccess,NA
FRUITVALE,-117.5425512,49.115288,PO BOX 610 - 1937 COLUMBIA GARDENS ROAD,Osler,BEAVER VALLEY CLINIC
VICTORIA,-123.3576434,48.455102,3461 COOK ST,Oscar West,COOK AND QUADRA MEDICAL CLINIC
WEST VANCOUVER,-123.1797408,49.3335876,108 - 2419 BELLEVUE AVE,Launchpad,NA
DUNCAN,-123.708823,48.776047,5768 ALLENBY RD TSEWULTUN HEALTH CENTER,MedAccess,ATTN SENIOR NURSE
NORTH VANCOUVER,-123.0721064,49.3269516,211 - 1940 LONSDALE AVENUE,Wolf,NA
VANCOUVER,-123.1041039,49.2635036,2450 ONTARIO STREET,Intrahealth VCH,RAVEN SONG CLINIC
NANAIMO,-124.0289813,49.2178519,195 - 4750 RUTHERFORD ROAD NORTH,Oscar,NA
PARKSVILLE,-124.3095221,49.3187512,PO BOX 1540 - 202 - 180 MCCARTER STREET,Launchpad,NA
COURTENAY,-124.9815476,49.6740725,1700 - 2751 CLIFFE AVENUE,IntraHealth,SOUTHWOOD MEDICAL CLINIC
NORTH VANCOUVER,-123.1009168,49.3371401,PO BOX 75557 - 3050 EDGEMONT BLVD,MD Physician Services,NA
BURNABY,-123.01893,49.2499871,106 - 3825 SUNSET STREET,Plexia,NA
VICTORIA,-123.3308402,48.4300629,225 - 1900 RICHMOND ROAD,MedAccess,NA
PENTICTON,-119.5918668,49.4941699,579 MARTIN STREET,Plexia,NA
KELOWNA,-119.4957287,49.8849333,202 - 1630 PANDOSY STREET,Accuro,NA
SURREY,-122.7984382,49.0311297,200 - 15331 16TH AVE,IntraHealth,HILLTOP MEDICAL CENTRE
COMOX,-124.9261093,49.6730325,101B - 1771 COMOX AVENUE,IntraHealth,TOWN CIRCLE MEDICAL
SURREY,-122.8250154,49.1917472,102-14333 104TH  AVENUE,Osler,NA
VICTORIA,-123.3641797,48.4681421,101 - 3960 QUADRA ST,Osler,NA
NEW WESTMINSTER,-122.8933071,49.2260098,302 - 301 EAST COLUMBIA STREET,Launchpad,NA
WHITE ROCK,-122.7909144,49.029777,15521 RUSSELL AVENUE,Launchpad,PRIVATE PRACTICE
SURREY,-122.8027414,49.1053336,103 - 15157 HIGHWAY 10,Wolf,PANORAMA VILLAGE MEDICAL CLINIC
VICTORIA,-123.3749103,48.4566559,3544 BLANSHARD STREET,Osler,NA
VANCOUVER,-123.1259148,49.2611413,2775 LAUREL STREET - 9TH FLR,Launchpad,DIAMOND HEALTH CARE CTR LAUREL CARDIOLOGY
VANCOUVER,-123.1204067,49.2190663,920C - 700 WEST 57TH AVENUE,Launchpad,GEORGE PEARSON CENTRE
NELSON,-117.2847019,49.4951494,413 - 3 VIEW STREET,MedAccess,KOOTENAY LK HOSP NEUROMUSCULAR + EMG LAB
VANCOUVER,-123.2434068,49.2639152,RM 1860 - 2255 WESBROOK MALL,Launchpad,UBC DEPARTMENT OF PSYCHIATRY
NANAIMO,-123.9723967,49.1831307,13 - 1599 DUFFERIN CRES,Accuro,NA
CHILLIWACK,-121.9657317,49.1399051,103 - 45485 KNIGHT ROAD,Oscar Nerd,VILLAGE PARK MEDICAL
VERNON,-119.2794447,50.2649347,9-3100 35TH STREET,Plexia,NA
VANCOUVER,-123.2034232,49.2640065,4303 WEST 10TH AVENUE,Oscar,NA
CHILLIWACK,-121.9570115,49.110878,201 - 45800 PROMONTORY ROAD,Oscar West,CROSS ROADS FAMILY PRACTICE
SIDNEY,-123.4007936,48.647608,2A - 2379 BEVAN AVENUE,MedAccess,BEVAN AVENUE MEDICAL
VANCOUVER,-123.0913402,49.2188237,7263 FRASER STREET,Osler,NA
MAPLE RIDGE,-122.6556484,49.2197182,402 - 20395 LOUGHEED HIGHWAY,IntraHealth,WESTGATE MEDICAL CLINIC
ABBOTSFORD,-122.3246453,49.0539612,304 - 2845 CRUICKSHANK STREET,IntraHealth,NA
VANCOUVER,-123.1315423,49.2809898,1123 DAVIE STREET,InputHealth,CBI CARE POINT DAVIE STREET
ABBOTSFORD,-122.3384549,49.0506108,172 - 2655 CLEARBROOK ROAD,Oscar Nerd,CENTRAL VALLEY MEDICAL CLINIC
SURREY,-122.8741661,49.1332766,114 - 12578 72ND AVENUE,Oscar Nerd,NA
VICTORIA,-123.3572855,48.4269747,941 PANDORA AVENUE,Launchpad,PANDORA ASSERTIVE COMMUNITY TREATMENT
VICTORIA,-123.3307382,48.4686848,102 - 1646 MCKENZIE AVENUE,Osler,TUSCANY MEDICAL CLINIC
VICTORIA,-123.3302199,48.4305343,302 - 2020 RICHMOND AVENUE,Plexia,NA
VANCOUVER,-123.1249085,49.2800387,300 808 NELSON ST,IntraHealth,COPEMAN HEALTHCARE CENTRE
QUALICUM BEACH,-124.4479828,49.3464452,3 - 219 FERN ROAD,Osler,QUALICUM BEACH ASSOCIATES
KEREMEOS,-119.8326764,49.2045297,700 3RD STREET,MedAccess,SOUTH SIMILKAMEEN HEALTH CENTRE
VANCOUVER,-123.1384717,49.2620593,213 - 2628 GRANVILLE STREET,Launchpad,NA
VANCOUVER,-123.0904171,49.2236992,6690 FRASER STREET,Launchpad,NA
VICTORIA,-123.3266597,48.4266748,1862 OAK BAY AVE,MedAccess,NA
BURNABY,-123.0167063,49.2330893,104 - 3965 KINGSWAY,Wolf,CENTRAL PARK MEDICAL CLINIC
VANCOUVER,-123.1262048,49.2455931,A311 - 4480 OAK STREET,Launchpad,NA
VANCOUVER,-123.1259148,49.2611413,2775 LAUREL STREET - 3RD FLR,Plexia,DIAMOND HEALTH CARE CTR ORTHOPEDIC SURGERY
LANGLEY,-122.6484709,49.1025179,101 - 20728 FRASER HWY,MedAccess,NA
MISSION,-122.3270153,49.1337746,104 - 32423 LOUGHEED HWY,Wolf,CEDAR CARE CLINIC
NANAIMO,-123.9424186,49.1688971,340 CAMPBELL STREET,IntraHealth,CALEDONIAN CLINIC
NEW WESTMINSTER,-122.8923133,49.2252694,103 - 250 KEARY STREET,Plexia,NA
NEW WESTMINSTER,-122.8923133,49.2252694,204 - 250 KEARY STREET,Osler,NA
ABBOTSFORD,-122.3154459,49.0558419,106 - 2955 GLADWIN ROAD,Launchpad,GLADWIN MEDICAL CLINIC
VICTORIA,-123.3639443,48.4268522,713 JOHNSON STREET - 1ST FLR,Wolf,COOL AID
GILLIES BAY,-124.4851985,49.6758725,PO BOX 10 - 2603 SANDERSON ROAD,Wolf,TEXADA HEALTH CENTRE
DUNCAN,-123.7091737,48.7840313,UNIT A  - 921 CANADA AVENUE,MedAccess,SOMENOS MEDICAL CLINIC
CAMPBELL RIVER,-125.2462899,50.0116464,130 - 520 2ND AVENUE,Oscar West,CEDARWOOD SPECIALIST GROUP
SURREY,-122.8428948,49.1745321,211 - 13710 94A AVENUE,Accuro,NA
SURREY,-122.7813232,49.1667441,4 9025 160 ST,Oscar,NA
VANCOUVER,-123.1282976,49.2792372,204 - 1160 BURRARD STREET,Plexia,NA
VANCOUVER,-123.1251268,49.2636604,230 - 943 WEST BROADWAY,Plexia,NA
KAMLOOPS,-120.3598098,50.6682182,102 - 775 MCGILL ROAD,MedAccess,NA
KELOWNA,-119.4918021,49.8608417,204 - 3140 LAKESHORE ROAD,Osler,NA
NANAIMO,-124.0256115,49.2345195,6010 BRICKYARD ROAD,IntraHealth,BRICKYARD MEDICAL CLINIC
QUATHIASKI COVE,-125.2091421,50.0402184,PO BOX 340,Oscar Nerd,QUADRA ISLAND MEDICAL
VANCOUVER,-123.1267045,49.2448408,C234 - 4500 OAK STREET,Launchpad,MEDICAL GENETICS
WILLIAMS LAKE,-122.1403504,52.1300929,402 BORLAND ST,MedAccess,NA
SQUAMISH,-123.1540768,49.6983179,PO BOX 9200 - 37989 CLEVELAND AVENUE,Osler,DIAMOND HEAD MEDICAL CLINIC
NORTH VANCOUVER,-123.0897298,49.3329847,400 - 2609 WESTVIEW DRIVE,Oscar West,NA
DUNCAN,-123.7080793,48.7783306,170 CRAIG ST,Oscar Nerd,COWICHAN MIDWIFERY GROUP
VANCOUVER,-123.1281537,49.2793415,440 - 1144 BURRARD STREET,IntraHealth,NA
NORTH VANCOUVER,-123.0718632,49.3191811,401 - 1200 LONSDALE AVENUE,Plexia,NA
VICTORIA,-123.3337925,48.4449543,340 - 1641 HILLSIDE AVENUE,Accuro,NA
VANCOUVER,-123.1289966,49.2805979,B180 - 1081 BURRARD STREET,Launchpad,ST PAULS HOSPITAL
POWELL RIVER,-124.5202068,49.8456395,4794 JOYCE AVENUE,Wolf,THE MEDICAL CLINIC ASSOCIATES
CAMPBELL RIVER,-125.2472914,50.0286822,PO BOX 781 STN A 1371B CEDAR STREET,Osler,COLUMBIA COAST CLINIC
DUNCAN,-123.7108344,48.7795251,335 JUBILEE STREET,MedAccess,VALLEY MEDICAL CLINIC
NANAIMO,-123.9723967,49.1831307,14 - 1599 DUFFERIN CRESCENT,Accuro,NA
KELOWNA,-119.4911315,49.8847407,564 LEON AVENUE,Accuro,KELOWNA GI ASSOCIATES
VANCOUVER,-123.1181027,49.2637252,L5 - 601 WEST BROADWAY,Launchpad,NA
LANGLEY,-122.6114124,49.096327,303 - 22112 52ND AVENUE,IntraHealth,LANGLEY PRIMARY HEALTH
VERNON,-119.274674,50.2637965,200 - 3207 30TH AVENUE,Osler,VERNON MEDICAL CLINIC
GABRIOLA ISLAND,-123.8363367,49.1785071,695 CHURCH STREET,Wolf,GABRIOLA MEDICAL CLINIC
BRENTWOOD BAY,-123.449952,48.5781126,7226 WEST SAANICH ROAD,MedAccess,NA
KEREMEOS,-119.8326764,49.2045297,PO BOX 219 - 700 3RD STREET,MedAccess,NA
VICTORIA,-123.4188582,48.5947167,1932 MT NEWTON CROSSROAD,MedAccess,CENTRAL SAANICH MEDICAL CLINIC
VICTORIA,-123.3337976,48.4484534,150 - 3200 SHELBOURNE STREET,Wolf,SHELBOURNE MEDICAL CLINIC
CAMPBELL RIVER,-125.2124326,49.9693484,1 - 2380 ISLAND HIGHWAY SOUTH,Oscar West,NA
CHILLIWACK,-121.9574496,49.1692391,106 - 9193 MAIN STREET,Oscar West,VALLEY MEDICAL CENTRE
VICTORIA,-123.3302199,48.4305343,101 - 2020 RICHMOND AVENUE,Osler,NA
VICTORIA,-123.3234804,48.4325466,324 - 1964 FORT STREET,Plexia,NA
BRENTWOOD BAY,-123.449952,48.5781126,7226 WEST SAANICH ROAD,MedAccess,BAYSIDE MEDICAL CENTRE
NORTH VANCOUVER,-123.072296,49.3230612,201 - 101 WEST 16TH ST,Plexia,NA
VANCOUVER,-123.1211512,49.2613116,D452 - 2733 HEATHER STREET,Launchpad,VGH INFECTIOUS DISEASES
VANCOUVER,-123.1540458,49.2338558,2077 WEST 42ND AVENUE,Oscar Nerd,KERRISDALE STATION MEDICAL CLINIC
VICTORIA,-123.4458152,48.516073,4955 PROSPECT ROAD,Oscar,BOWLER MEDICAL
VICTORIA,-123.4458152,48.516073,4955 PROSPECT LAKE ROAD,Oscar,BOWLER MEDICAL
FORT LANGLEY,-122.5812094,49.1676937,PO BOX 130 1 - 9089 GLOVER ROAD,IntraHealth,VILLAGE MEDICAL CLINIC
VANCOUVER,-123.1261031,49.2638665,480 - 999 WEST BROADWAY,Accuro,FAIRVIEW PLASTIC SURGERY CENTER
VICTORIA,-123.3123953,48.4635137,BOX 1700 STN CSC,Accuro,UVIC HEALTH SERVICES
BURNABY,-122.9918946,49.2258939,503 - 4980 KINGSWAY,Osler,NA
VICTORIA,-123.3641797,48.4681421,101 - 3960 QUADRA STREET,Osler,ISLAND SEXUAL HEALTH
COMOX,-124.9255823,49.6718759,201 - 1757 BEAUFORT AVENUE,MedAccess,SEACOVE MEDICAL CLINIC
SURREY,-122.833819,49.1797257,3B - 9750 140 ST,Launchpad,RAPID ACCESS CLINIC
VANCOUVER,-123.1054748,49.2813839,20 HASTINGS STREET WEST,Oscar West,PORTLAND HOTEL CLINIC
VICTORIA,-123.3832251,48.4875777,302 - 4420 CHATTERTON WAY,Accuro,PEDIATRIC CONSULTANTS
SURREY,-122.7984382,49.0311297,200 - 15331 16TH AVE,IntraHealth,HILLTOP MEDICAL CLINIC
VANCOUVER,-123.1275058,49.2784866,770 - 1190 HORNBY STREET,Accuro,PACIFIC GASTROENTEROLOGY ASSOCIATES
MAPLE RIDGE,-122.6032284,49.2175021,22338 SELKIRK AVENUE,Launchpad,NA
MAPLE RIDGE,-122.6039862,49.219582,22315 MACINTOSH AVENUE,Accuro,NA
CUMBERLAND,-125.0255737,49.6191113,PO BOX 719,Osler,2765 DUNSMUIR AVENUE
VICTORIA,-123.3841127,48.4896014,101 - 4450 CHATTERTON WAY,Accuro,BROADMEAD SURGICAL CENTRE
PEACHLAND,-119.7371287,49.7728109,RR 7 - 5848D BEACH AVENUE,MedAccess,BEACH AVENUE MEDICAL CLINIC
VICTORIA,-123.3837134,48.4489151,4 - 101 BURNSIDE ROAD WEST,Oscar,NA
LADYSMITH,-123.8204214,48.992235,PO BOX 700 - 541 3RD AVENUE,MedAccess,HILLSIDE MEDICAL CLINIC
KAMLOOPS,-120.3310884,50.6782761,101 - 436 LORNE STREET,MedAccess,RIVERVIEW MEDICAL CLINIC
CHILLIWACK,-121.9599871,49.1681443,9146 MARY STREET,Oscar West,NA
VANCOUVER,-123.1259148,49.2611413,2775 LAUREL STREET - 3RD FLR,Plexia,NA
VANCOUVER,-123.070181,49.2618222,208 - 2555 COMMERCIAL DR,Oscar,ON THE DRIVE MIDWIVES LTD
VICTORIA,-123.3163717,48.4260718,116 - 2187 OAK BAY AVENUE,Osler,NA
RICHMOND,-123.1482094,49.1692939,830 - 6091 GILBERT ROAD,Launchpad,NA
WEST VANCOUVER,-123.1596167,49.3290348,202 - 520 17TH STREET,Wolf,CONTINUUM MEDICAL CARE
SIDNEY,-123.3951309,48.6488307,207 - 2537 BEACON AVENUE,Oscar,OCEAN PIER MEDICAL CENTRE
PORT COQUITLAM,-122.7770807,49.2611585,1 - 2185 WILSON AVENUE,IntraHealth,WILSON CENTRE FAMILY PRACTICE
VANCOUVER,-123.1249085,49.2800387,300 808 NELSON ST,IntraHealth,COPEMAN HEALTHCARE CENTRE
NORTH VANCOUVER,-123.0814184,49.3122611,230 - 150 WEST ESPLANADE,Oscar,LOWER LONSDALE MEDICAL CLINIC
VANCOUVER,-123.1259148,49.2611413,3RD FL - 2775 LAUREL STREET,Plexia,NA
CHILLIWACK,-121.9590557,49.1239478,120G - 6640 VEDDER ROAD,Oscar Nerd,NA
RICHMOND,-123.1342253,49.1668506,100 - 8171 COOK ROAD,Oscar,COOK ROAD MEDICAL CLINIC
LADYSMITH,-123.8275181,48.99582,1111 4TH AVENUE,Oscar Host,LADYSMITH FAMILY PRACTICE
CHEMAINUS,-123.7163167,48.9262953,9892 ESPLANADE STREET,MedAccess & RelayHealth,CHEMAINUS MEDICAL CLINIC
KELOWNA,-119.3881308,49.8873047,230 ROBSON ROAD WEST,MedAccess,NA
VANCOUVER,-123.2442035,49.2648819,M334 - 2211 WESBROOK MALL,InputHealth,UBC DEPARTMENT OF PSYCHIATRY
VANCOUVER,-123.1259148,49.2611413,2775 LAUREL STREET - 3RD FLR,Plexia,NA
PORT ALBERNI,-124.8109451,49.2578064,4556 GERTRUDE STREET,MedAccess,NA
SURREY,-122.8427538,49.1772129,607 - 13737 96TH AVENUE,Plexia,NA
REVELSTOKE,-118.1952793,50.998722,PO BOX 590,MedAccess,SELKIRK MEDICAL GROUP
VICTORIA,-123.3730457,48.5122221,4902 ALAMIDA CRESCENT,Launchpad,NA
ALERT BAY,-126.9430677,50.5941432,PO BOX 49,Wolf,NAMGIS HEALTH CENTRE
VICTORIA,-123.3641797,48.4681421,101 - 3960 QUADRA STREET,Osler,ISLAND SEXUAL HEALTH
PRINCETON,-120.5265183,49.4543114,PO BOX 610 98  RIDGEWOOD DRIVE,MedAccess,CASCADE MEDICAL CENTRE
VICTORIA,-123.3538831,48.4221912,101 - 1005 COOK STREET,Launchpad,COOK STREET MIDWIVES
NANAIMO,-123.9439826,49.1685487,512 CAMPBELL STREET,Launchpad,TOWNSITE MEDICAL CLINIC
NORTH VANCOUVER,-123.0408014,49.3360334,102 - 1200 LYNN VALLEY ROAD,Launchpad,LYNN VALLEY MEDICAL CLINIC
COQUITLAM,-122.7929014,49.271603,212 - 3001 GORDON AVENUE,Wolf,MEDICAL WEST
TERRACE,-128.5911069,54.5189215,4634 PARK AVENUE - 4TH FLR,IntraHealth,PARK AVE MEDICAL CLINIC
DAWSON CREEK,-119.5806169,49.4730809,1300 - 111TH AVENUE,Osler,ELJEN MEDICAL CLINIC
LANGLEY,-122.6671061,49.0947502,4041 - 200B STREET,MedAccess,BROOKSWOOD FAMILY PRACTICE
SURREY,-122.7886309,49.0494366,108 - 2626 CROYDON DRIVE,Accuro,NA
WEST VANCOUVER,-123.1596167,49.3290348,201 - 520 17TH STREET,Wolf,CONTINUUM MEDICAL CARE
COQUITLAM,-122.7934129,49.2735462,3000 LOUGHEED HWY,Wolf,SUNWOOD MEDICAL
VANCOUVER,-123.1259148,49.2611413,5TH FL - 2775 LAUREL STREET,InputHealth,DIAMOND HEALTH CARE CTR
PORT MOODY,-122.827467,49.2828137,310 - 205 NEWPORT DRIVE,Oscar Nerd,NEWPORT FAMILY PRACTICE
NANAIMO,-124.0256115,49.2345195,6010 BRICKYARD ROAD,IntraHealth,BRICKYARD MEDICAL CLINIC
VANCOUVER,-123.1233055,49.2640082,304 - 888 WEST 8TH AVENUE,Oscar Nerd,NA
VICTORIA,-123.3527566,48.4288186,303 - 1711 COOK STREET,Osler,NA
COMOX,-124.9261093,49.6730325,101B - 1771 COMOX AVE,Intrahealth,TOWN CIRCLE MEDICAL CLINIC
NORTH VANCOUVER,-123.0718632,49.3191811,307 - 1200 LONSDALE AVENUE,Plexia,NA
MAPLE RIDGE,-122.6556484,49.2197182,402 - 20395 LOUGHEED HIGHWAY,IntraHealth,WESTGATE MEDICAL CLINIC
PENTICTON,-119.5898215,49.4968222,432 ELLIS STREET,MedAccess,NA
PRINCE GEORGE,-122.7521638,53.9157213,104 - 1569 6TH AVENUE,MOIS,NA
VICTORIA,-123.3234804,48.4325466,322 - 1964 FORT STREET,Launchpad,NA
FERNIE,-115.056277,49.5136928,PO BOX 670,Accuro,FERNIE HOSPITAL
POWELL RIVER,-124.5202068,49.8456395,4794 JOYCE AVENUE,Wolf,THE MEDICAL CLINIC ASSOCIATES
KELOWNA,-119.4898652,49.856798,208 - 3330 RICHTER STREET,Accuro,NA
VANCOUVER,-123.0918041,49.2832953,569 POWELL STREET,Intrahealth VCH,DOWNTOWN COMMUNITY CLINIC
VICTORIA,-123.3747387,48.4564346,104 - 3551 BLANSHARD STREET,Accuro,REBALANCE MD
COURTENAY,-124.9969041,49.6885853,UNIT E - 310 8TH STREET,IntraHealth,VALLEY CARE MEDICAL
VICTORIA,-123.3834139,48.4975823,140 - 777 ROYAL OAK DRIVE,InputHealth,CARE POINT MEDICAL CENTRE
POWELL RIVER,-124.5196218,49.8465311,7019 ALBERNI STREET,Wolf,FAMILY TREE CLINIC
DELTA,-122.8909831,49.1563617,202 - 8425 120TH STREET,Launchpad,NA
DUNCAN,-123.7108344,48.7795251,335 JUBILEE STREET,MedAccess,VALLEY MEDICAL CLINIC
COURTENAY,-124.9632069,49.7101913,300 - 444 LERWICK ROAD,IntraHealth,THE CROWNE ISLE CLINIC
VICTORIA,-123.3837134,48.4489151,2 - 101 BURNSIDE ROAD WEST,Oscar,NA
VANCOUVER,-123.1259148,49.2611413,2775 LAUREL ST -  7TH FLR,Launchpad,DIAMOND HEALTH CARE CENTRE
LANGLEY,-122.6256024,49.0905999,21561 OLD YALE ROAD,Accuro,NA
NANAIMO,-123.9424186,49.1688971,340 CAMPBELL STREET,IntraHealth,CALEDONIAN CLINIC
VANCOUVER,-123.1863811,49.2682111,303 - 2083 ALMA STREET,Oscar Nerd,WESTSIDE MIDWIVES
SALT SPRING ISLAND,-123.4857594,48.8646162,258 EAGLE RIDGE DRIVE,MedAccess,EAGLE RIDGE CLINIC
SURREY,-122.8900721,49.132269,210 - 7110 120TH STREET,Launchpad,NA
VANCOUVER,-123.070181,49.2618222,208 - 2555 COMMERCIAL DR,Oscar,ON THE DRIVE MIDWIVES
SURREY,-122.8027414,49.1053336,103 - 15157 HIGHWAY 10,Wolf,PANORAMA VILLAGE MEDICAL CLINIC
SIDNEY,-123.401168,48.6495664,108 - 2360 BEACON AVENUE,Osler,NA
VERNON,-119.2685927,50.2698606,1 - 3801 28A STREET,Intrahealth,THE WILLOW CLINIC
VANCOUVER,-123.1259148,49.2611413,2775 LAUREL STREET - 5TH FLR,Accuro,NA
SIDNEY,-123.3994157,48.6474231,2425 BEVAN AVENUE,Osler,NA
VANCOUVER,-123.1213803,49.2635965,101 - 777 WEST BROADWAY,IntraHealth,THE DOCTORS OFFICE
VICTORIA,-123.3337925,48.4449543,120 -1641 HILLSIDE AVENUE,Osler,LANDSDOWNE TREATMENT CENTRE
NANAIMO,-123.9330141,49.1646557,103 - 650 SOUTH TERMINAL AVENUE,IntraHealth,MEDICAL ARTS CENTRE
RICHMOND,-123.1482094,49.1692939,310 - 6091 GILBERT ROAD,Plexia,NA
NANAIMO,-123.9424186,49.1688971,340 CAMPBELL STREET,IntraHealth,CALEDONIAN CLINIC
DELTA,-122.8909953,49.129115,103 - 6935 120TH STREET,MedAccess,NA
NANAIMO,-123.9730982,49.1828239,303 - 1621 DUFFERIN CRESCENT,Accuro,NA
NORTH VANCOUVER,-123.0711585,49.3196664,210 - 125 EAST 13TH STREET,Launchpad,NA
VICTORIA,-123.3576434,48.455102,3461 COOK STREET,Oscar West,COOK & QUADRA MEDICAL CLINIC
ABBOTSFORD,-122.2934399,49.0398923,203 - 2051 MCCALLUM ROAD,IntraHealth,GATEWAY HEALTH AND WELLNESS CENTRE
COMOX,-124.9278698,49.6729689,301 - 1819 BEAUFORT AVENUE,Osler,NA
VICTORIA,-123.3333185,48.4768546,4092 SHELBOURNE STREET,Accuro,NA
CAMPBELL RIVER,-125.2462899,50.0116464,110 - 520 2ND AVENUE,Oscar West,GENERAL INTERNAL MEDICINE
VICTORIA,-123.3747387,48.4564346,104 - 3551 BLANCHARD STREET,Accuro,REBALANCE MD
HORNBY ISLAND,-124.6648813,49.5355016,1885 SOLLANS ROAD,Launchpad,HORNBY ISLAND MEDICAL CLINIC
CAMPBELL RIVER,-125.2439502,50.0097063,375 2ND AVENUE,Oscar Host,NA
NANAIMO,-123.9424186,49.1688971,340 CAMPBELL STREET,IntraHealth,CALEDONIAN CLINIC
KELOWNA,-119.490148,49.8626485,102 - 3040 TUTT STREET,MedAccess,NA
BURNABY,-123.0038301,49.2268858,146 - 6200 MCKAY AVENUE,Oscar,STATION SQUARE MEDICAL
VICTORIA,-123.3228272,48.4324038,308 - 1990 FORT STREET,Osler,NA
NANAIMO,-123.9604033,49.187537,102 - 1650 TERMINAL AVENUE NORTH,IntraHealth,BAYVIEW MEDICAL CLINIC
KELOWNA,-119.4901469,49.8651047,200 - 550 WEST AVENUE,Accuro,NA
VICTORIA,-123.3712656,48.4167534,547 MICHIGAN STREET,Oscar,CO-OP COMMUNITY HEALTH AT JAMES BAY
RICHMOND,-123.1830756,49.1267089,204 - 3811 CHATHAM STREET,IntraHealth,STEVESTON MEDICAL CLINIC
VANCOUVER,-123.1251268,49.2636604,820 - 943 WEST BROADWAY,Launchpad,NA
KELOWNA,-119.4760365,49.8765707,1111 SPRINGFIELD ROAD,MedAccess,GROUP ONE MEDICAL
COQUITLAM,-122.8566851,49.2348404,1301 LOUGHEED HWY,Wolf,GOOD HEALTH FAMILY MEDICINE
VANCOUVER,-123.1289966,49.2805979,479 - 1081 BURRARD STREET,Launchpad,NA
NANAIMO,-123.9672873,49.1840472,202 - 1125 DUFFERIN CRESCENT,Accuro,NA
NANAIMO,-123.9723967,49.1831307,11 - 1599 DUFFERIN CRESCENT,IntraHealth,NA
BURNABY,-122.9918946,49.2258939,600 - 4980 KINGSWAY,Osler,NA
PRINCE GEORGE,-122.755411,53.9085702,308 - 1669 VICTORIA STREET,Launchpad,NA
VICTORIA,-123.3641797,48.4681421,101 - 3960 QUADRA STREET,Osler,ISLAND SEXUAL HEALTH
VANCOUVER,-123.1259148,49.2611413,2775 LAUREL ST - 7TH FLR,iClinic,NA
MACKENZIE,-123.1013184,55.3379008,PO BOX 2410 - 45 CENTENNIAL DRIVE,NH MOIS,MACKENZIE FAMILY HEALTH CLINIC
NANAIMO,-123.9730982,49.1828239,304-1621 DUFFERIN CRES,Plexia,NA
GALIANO,-123.3207873,48.8714769,S4-C19-908 BURRILL ROAD,Wolf,GALIANO HEALTH CARE CTR
VICTORIA,-123.3834139,48.4975823,140 - 777 ROYAL OAK DRIVE,InputHealth,CARE POINT VICTORIA
VICTORIA,-123.4383194,48.4536839,275 ISLAND HIGHWAY,Osler,ADMIRALS MEDICAL CLINIC
NORTH SAANICH,-123.42108,48.6310567,9174 EAST SAANICH ROAD,Oscar,NA
RICHMOND,-123.1482094,49.1692939,560 - 6091 GILBERT ROAD,Launchpad,NA
VICTORIA,-123.3848514,48.4936772,140 - 777 ROYAL OAK AVENUE,Accuro,CBI CARE POINT BROADMEAD
FERNIE,-115.0623902,49.5022032,PO BOX 820 - 402 2ND AVENUE,Intrahealth IHA,SPARLING EAST MEDICAL CLINIC
VICTORIA,-123.3491162,48.415768,1282 FAIRFIELD ROAD,IntraHealth,MOSS ROCK MEDICAL CENTRE
KELOWNA,-119.4794618,49.8788974,1955 BOWES STREET,Oscar,MALACHITE MIDWIVES
NANAIMO,-123.968844,49.1848149,1665 GRANT AVE HEALTH UNIT,Launchpad,HOME NURSING
SURREY,-122.8457959,49.1978627,10751 KING GEORGE HIGHWAY,Oscar West,NA
LAZO,-124.9014145,49.7164864,19 WING HOSPITAL,Launchpad,PO BOX 1000
ESQUIMALT,-123.4136441,48.4379532,1191 COLVILLE ROAD,Launchpad,NA
LANGLEY,-122.6518311,49.1026687,205 - 5503 206TH STREET,Launchpad,NA
CAMPBELL RIVER,-125.2411602,50.0071696,277 EVERGREEN ROAD,Oscar West,ALDER MEDICAL CENTRE
BURNABY,-122.9918946,49.2258939,600 - 4980 KINGSWAY,Osler,NA
VANCOUVER,-123.1181027,49.2637252,U6 - 601 WEST BROADWAY,MedAccess,BROADWAY FAMILY PRACTICE
NEW WESTMINSTER,-122.8923133,49.2252694,101 - 250 KEARY STREET,Launchpad,NA
NEW WESTMINSTER,-122.8933951,49.2253096,203 - 245 EAST COLUMBIA STREET,Plexia,NA
ABBOTSFORD,-122.3356677,49.0500379,2 - 2629 CEDAR PARK PLACE,Wolf,NA
VANCOUVER,-123.1547111,49.2635438,480 - 2184 WEST BROADWAY,Wolf,NA
ABBOTSFORD,-122.3356677,49.0500379,2 - 2629 CEDAR PARK PLACE,Wolf,NA
VANCOUVER,-123.1289966,49.2805979,B180 - 1081 BURRARD STREET,iClinic,HEALTHY HEART PROGRAM PREVENTION CLINIC
KELOWNA,-119.4760365,49.8765707,1111 SPRINGFIELD ROAD,MedAccess,GROUP ONE MEDICAL
COQUITLAM,-122.7934129,49.2735462,142 - 3000 LOUGHEED HWY,Oscar Nerd,TRI-CITY FAMILY PRACTICE
MAPLE RIDGE,-122.5997574,49.2199067,610 - 22470 DEWDNEY TRUNK ROAD,Plexia,NA
NANAIMO,-123.9424186,49.1688971,340 CAMPBELL STREET,IntraHealth,CALEDONIAN CLINIC
NORTH VANCOUVER,-123.070512,49.3196669,702 - 145 EAST 13TH STREET,Plexia,NA
LANGLEY,-122.6517384,49.1026289,5500 206TH STREET,IntraHealth,FOUR OAKS MEDICAL CENTRE
PRINCE GEORGE,-122.7658118,53.9152453,106 - 2155 10TH AVENUE,MOIS,NA
VANCOUVER,-123.2442035,49.2648819,M334 - 2211 WESTBROOK MALL,InputHealth,UBC STUDENT HEALTH SERVICES
RICHMOND,-123.1464747,49.1687434,7000 WESTMINSTER HWY,Launchpad,ER - RICHMOND HOSPITAL
VANCOUVER,-123.1259148,49.2611413,8TH FL - 2775 LAUREL STREET,Plexia,DISEASE AND NEUROMUSCULAR UNIT EMG LAB
HORNBY ISLAND,-124.6648813,49.5355016,1885 SOLLANS ROAD,Launchpad,HORNBY ISLAND MEDICAL CLINIC
VANCOUVER,-123.040184,49.2190888,350 - 3150 EAST 54TH AVENUE,Oscar West,COLLINGWOOD MEDICAL
NORTH VANCOUVER,-123.0814184,49.3122611,230 - 150 WEST ESPLANADE,Oscar,LOWER LONSDALE MEDICAL CENTRE
HORNBY ISLAND,-124.6648813,49.5355016,1885 SOLLANS ROAD,Launchpad,HORNBY ISLAND MEDICAL
VANCOUVER,-123.1295879,49.2797039,211 - 1033 DAVIE STREET,iClinic,NA
NEW WESTMINSTER,-122.8912681,49.2246807,305 - 233 NELSONS CRESCENT,Accuro,NA
VICTORIA,-123.3661099,48.4315775,605 DISCOVERY STREET,Accuro,CBI HEALTH CENTRE
FERNIE,-115.056277,49.5136928,PO BOX 670,Accuro,NA
VICTORIA,-123.3877429,48.4931816,105 - 4442 WEST SAANICH ROAD,Oscar Nerd,FAMILY PRACTICE
NORTH VANCOUVER,-123.0728972,49.3182724,102 - 1111 LONSDALE AVENUE,Launchpad,NORTH SHORE EYE ASSOCIATES
VANCOUVER,-123.1558296,49.2385778,5299 ARBUTUS STREET,Intrahealth,SKIN MATTERS MEDICAL CENTRE
NANAIMO,-123.9672873,49.1840472,103 - 1125 DUFFERIN CRESCENT,Accuro,NA
SURREY,-122.8899256,49.1334361,216 - 7170 120TH STREET,Osler,CHEEMA MEDICAL CLINIC
SURREY,-122.8160231,49.1912385,14650 104TH AVENUE,Oscar,GUILDFORD MEDICAL CLINIC
SURREY,-122.8894631,49.1325667,103 - 7130 120TH STREET,Launchpad,NA
VANCOUVER,-123.1259148,49.2611413,4203 - 2775 LAUREL STREET,Plexia,DIAMOND HEALTH CARE CENTRE
DELTA,-123.0856734,49.092382,140 - 4977 TRENNANT STREET,Wolf,DELTA MEDICAL CLINIC
SURREY,-122.8427538,49.1772129,906 - 13737 96 AVENUE,Osler,NA
VANCOUVER,-123.1547111,49.2635438,250 - 2184 WEST BROADWAY,Wolf,NA
PORT COQUITLAM,-122.7770807,49.2611585,1 - 2185 WILSON AVENUE,IntraHealth,WILSON CENTRE FAMILY PRACTICE
VICTORIA,-123.3331826,48.4672493,102 - 3930 SHELBOURNE STREET,Plexia,NA
VANCOUVER,-123.1259148,49.2611413,2775 LAUREL STREET - 6TH FLR,Accuro,UROLOGY CLINIC - DIAMOND HEALTH CARE CENTRE
VANCOUVER,-123.1259148,49.2611413,10TH FLR - 2775 LAUREL STREET,Accuro,HAEMATOLOGY AND BMT PROGRAM
VANCOUVER,-123.11886,49.2320657,360 - 650 WEST 41ST AVENUE,Wolf,NA
BURNABY,-123.0006501,49.2291486,4645 KINGSWAY AVENUE,Oscar West,KINGSWAY MEDICAL CLINIC
NANAIMO,-123.9672873,49.1840472,304  - 1125 DUFFERIN CRESCENT,Accuro,HARBOUR CITY HEALTH CENTRE
VICTORIA,-123.3123953,48.4635137,PO BOX 1700,Accuro,UNIVERSITY OF VICTORIA
VICTORIA,-123.333765,48.4449626,380 1641 HILLSIDE AVE,Plexia,NA
CHEMAINUS,-123.7157666,48.9272295,9909 ESPLANADE STREET,MedAccess,CHEMAINUS LABORATORY AND EMERGENCY
CHETWYND,-121.6304277,55.6955011,PO BOX 148 5125 50 STREET SW,NH MOIS,NA
LANGLEY,-122.6507189,49.1087703,5 - 5761 GLOVER ROAD,MedAccess,ST. LUKE FAMILY PRACTICE
VANCOUVER,-123.2441311,49.264794,3500 - 2215 WESBROOK MALL,Plexia,DJAVAD MOWAFAGHIAN CENTRE FOR BRAIN HEALTH
VICTORIA,-123.3337925,48.4449543,325 - 3066 SHELBOURNE STREET,Osler,NA
WHITE ROCK,-122.7945119,49.0295511,101 - 15451 RUSSELL AVENUE,IntraHealth,WHITE ROCK MEDICAL
SAYWARD,-125.9593386,50.3794929,601 KELSEY WAY PO BOX 152,Oscar Nerd,SAYWARD PRIMARY HEALTHCARE CLINIC
VICTORIA,-123.3834139,48.4975823,140 - 777 ROYAL OAK DRIVE,InputHealth,CBI CARE POINT MEDICAL CENTRE
VICTORIA,-123.3961746,48.4543697,14 - 3170 TILLICUM ROAD,Oscar,TILLICUM MEDICAL CLINIC
SURREY,-122.8424373,49.1768252,13750 96TH AVENUE,Launchpad,NA
VICTORIA,-123.3527566,48.4288186,304 - 1711 COOK STREET,MedAccess,NA
LANGLEY,-122.6733484,49.1179171,19851 WILLOWBROOK DRIVE,Launchpad,VALLEY CENTRE MEDICAL CLINIC
VANCOUVER,-123.11886,49.2320657,360 -  650 WEST 41ST AVENUE,Wolf,OAKRIDGE MEDICAL DENTAL TOWER
NORTH VANCOUVER,-123.0725123,49.3184531,300 - 1133 LONSDALE AVENUE,IntraHealth,NORTH SHORE MEDICAL GROUP
COQUITLAM,-122.7929014,49.271603,216 - 3001 GORDON AVENUE,Wolf,NA
BURNABY,-122.8959168,49.2510397,145 - 9855 AUSTIN AVENUE,Launchpad,LOUGHEED MEDICAL CLINIC
ABBOTSFORD,-122.2233358,49.0447513,105 - 2362 WHATCOM ROAD,Wolf,NA
VICTORIA,-123.504633,48.4495407,313 - 877 GOLDSTREAM AVENUE,Oscar West,NA
NANAIMO,-123.9672873,49.1840472,201 - 1125 DUFFERIN CRESCENT,Accuro,HARBOUR CITY HEALTH CENTRE
VANCOUVER,-123.1267045,49.2448408,B600 - 4500 OAK STREET,Launchpad,OAK TREE CLINIC
VICTORIA,-123.3337925,48.4449543,145 - 3066 SHELBOURNE STREET,Osler,NA
LAZO,-124.9014145,49.7164864,CFB (COMOX),Launchpad,PO BOX 1000 - STATION MAIN
VICTORIA,-123.3334413,48.4719991,200 - 3994 SHELBOURNE STREET,Osler,UNIVERSITY PLAZA FAMILY PRACTICE
RICHMOND,-123.1341344,49.1838923,2180 - 4151 HAZELBRIDGE WAY,Wolf,ABERDEEN HEALTH CENTRE
LANGLEY,-122.6114124,49.096327,302 - 22112 52ND AVENUE,Launchpad,NA
VICTORIA,-123.3353305,48.4262891,301 - 1625 OAK BAY AVE,Plexia,NA
ALDERGROVE,-122.4733158,49.0583348,27107 FRASER HIGHWAY,Osler,FRASER HIGHWAY FAMILY PRACTICE
DUNCAN,-123.7080793,48.7783306,170 CRAIG STREET,Oscar Nerd,MATRAE CENTRE
RICHMOND,-123.1375347,49.1747761,5591 NO. 3 ROAD,Plexia,MARY PACK ARTHRITIS PROGRAM
NEW WESTMINSTER,-122.8912681,49.2246807,301 - 223 NELSON CRESCENT,Plexia,NA
NEW WESTMINSTER,-122.8912681,49.2246807,301 - 223 NELSON CRESCENT,Plexia,NA
LANGLEY,-122.6517384,49.1026289,5500 206TH STREET,IntraHealth,FOUR OAKS MEDICAL CENTRE
SURREY,-122.8014007,49.1898142,1269 - 10355 152ND STREET,Wolf,GUILDFORD TOWN CENTRE MEDICAL CLINIC
VANCOUVER,-123.1281537,49.2793415,460 - 1144 BURRARD STREET,IntraHealth,NA
NORTH VANCOUVER,-123.0725123,49.3184531,300 - 1133 LONSDALE AVE,IntraHealth,NORTH SHORE MEDICAL GROUP
KELOWNA,-119.490148,49.8626485,101 - 3040 TUTT STREET,MedAccess,NA
FERNIE,-115.0623902,49.5022032,PO BOX 820,Intrahealth IHA,SPARLING EAST MEDICAL CLINIC
DELTA,-123.0856734,49.092382,140 - 4977 TRENNANT STREET,Wolf,DELTA MEDICAL CLINIC
KELOWNA,-119.4760365,49.8765707,1111 SPRINGFIELD ROAD,MedAccess,GROUP ONE MEDICAL
VANCOUVER,-123.1267045,49.2448408,C234 - 4500 OAK STREET,Launchpad,DEPARTMENT OF MEDICAL GENETICS
SURREY,-122.8894631,49.1325667,117 - 7130 120TH STREET,Launchpad,NA
NORTH VANCOUVER,-123.024775,49.3115536,333 SEYMOUR BLVD - 2ND FLR,Launchpad,MOUNT SEYMOUR CLINIC
DAWSON CREEK,-120.2327642,55.7582525,1113 103RD AVENUE,Launchpad,NA
VICTORIA,-123.3228272,48.4324038,309 - 1990 FORT STREET,Accuro,NA
LANGLEY,-122.6502877,49.1079098,101 - 5796 GLOVER ROAD,MedAccess,GLOVER MEDICAL CLINIC
VICTORIA,-123.3228272,48.4324038,401 - 1990 FORT STREET,Accuro,NA
CHILLIWACK,-121.9591271,49.1671473,1 - 45905 YALE ROAD,Oscar,SOUTHGATE MEDICAL
COURTENAY,-124.9916789,49.6861534,202 - 1530 CLIFFE AVENUE,Accuro,NA
COURTENAY,-124.9916789,49.6861534,202 - 1532 CLIFFE AVENUE,Plexia,NORTH ISLAND UROLOGY
NANAIMO,-123.9604033,49.187537,102 - 1650 TERMINAL AVE NORTH,IntraHealth,BAYVIEW MEDICAL CLINIC
DUNCAN,-123.7033411,48.7743357,291 COWICHAN WAY,MedAccess,COWICHAN WAY CLINIC
NANAIMO,-123.9330141,49.1646557,"103 - 650 SOUTH TERMINAL AVENUE, PORT PLACE MALL",IntraHealth,THE MEDICAL ARTS CENTRE
VANCOUVER,-123.1251268,49.2636604,310 - 943  WEST BROADWAY,McKeever Wizardry,NA
CAMPBELL RIVER,-125.2472914,50.0286822,1371B CEDAR STREET,Osler,COLUMBIA COAST CLINIC
NANAIMO,-123.9447778,49.1654392,233 PRIDEAUX STREET,Oscar,CLINE MEDICAL CENTRE
LANGLEY,-122.6733484,49.1179171,19851 WILLOWBROOK DRIVE,Launchpad,NA
VANCOUVER,-123.101404,49.2109907,235 SE MARINE DRIVE,MedAccess,NA
NANAIMO,-123.9604033,49.187537,102 - 1650 TERMINAL AVENUE NORTH,IntraHealth,BAYVIEW MEDICAL CLINIC
PENTICTON,-119.5838601,49.4687254,110 - 2504 SKAHA LAKE ROAD,Osler,HEARTLINE MEDICAL
VICTORIA,-123.4707503,48.4414961,102 - 1910 SOOKE ROAD,Wolf,COLWOOD MEDICAL FAMILY PRACTICE
DUNCAN,-123.778547,48.7821363,5816 MENZIES RD,Launchpad,NA
VICTORIA,-123.3533691,48.4239009,326 - 1175 COOK STREET,Launchpad,NA
VERNON,-119.2699496,50.2655739,205 - 2903 32ND AVENUE,Wolf,LIGHTHOUSE MEDICAL CLINIC
CAMPBELL RIVER,-125.2411602,50.0071696,277 EVERGREEN ROAD,Oscar West,ALDER MEDICAL CENTRE
SIDNEY,-123.4007936,48.647608,2A - 2379 BEVAN AVENUE,MedAccess,PENINSULA MEDICAL
COMOX,-124.8664286,49.6954927,360 KNIGHT ROAD,Launchpad,NA
ABBOTSFORD,-122.2946872,49.0409501,4 - 2151 MCCALLUM ROAD,EHR Plus,CANNON CLINIC
KAMLOOPS,-120.3339424,50.6721042,203 - 321 NICOLA STREET,Accuro,NA
NANAIMO,-124.0289813,49.2178519,195 - 4750 RUTHERFORD ROAD,Oscar,NORTH NANAIMO MEDICAL CLINIC
NORTH SAANICH,-123.42108,48.6310567,9174 EAST SAANICH ROAD,Oscar,WILLOW SPECIALIST CLINIC
VANCOUVER,-123.1259148,49.2611413,SUITE 8205B - 2775 LAUREL STREET,Plexia,DIAMOND HEALTH CARE CENTRE
NANAIMO,-123.9330141,49.1646557,103 - 650 SOUTH TERMINAL AVENUE,IntraHealth,MEDICAL ARTS CENTRE
VANCOUVER,-123.1222338,49.2637904,1407 - 805 WEST BROADWAY,Plexia,NA
VICTORIA,-123.4707503,48.4414961,102 - 1910 SOOKE ROAD,Launchpad,NA
DUNCAN,-123.7098645,48.7782337,186 KENNETH STREET,MedAccess,NA
VANCOUVER,-123.070181,49.2618222,208 - 2555 COMMERCIAL DRIVE,Oscar,NA
COURTENAY,-124.9766727,49.6672968,3199 CLIFFE AVENUE,Oscar Nerd,NA
NANAIMO,-124.0016164,49.2078938,2 - 3188 BARONS ROAD,Oscar Nerd,THE MEDICINE CABINET
MAPLE RIDGE,-122.6073795,49.2208137,B - 22195 DEWDNEY TRUNK ROAD,IntraHealth,NA
VANCOUVER,-123.1262048,49.2455931,K3 -180 - 4480 OAK STREET,Launchpad,BC CHILDRENS HOSPITAL
NORTH VANCOUVER,-123.0744768,49.3217918,100 - 145 WEST 15TH STREET,Wolf,PLAZA 15 FAMILY PRACTICE
VICTORIA,-123.3337925,48.4449543,350 - 1641 HILLSIDE AVENUE,Launchpad,NA
VICTORIA,-123.2994466,48.4717605,2400 ARBUTUS ROAD,Accuro,NA
VANCOUVER,-123.13193,49.2631659,400 - 1212 WEST BROADWAY,Launchpad,NA
VICTORIA,-123.3527566,48.4288186,203 - 1711 COOK STREET,Oscar West,NA
VICTORIA,-123.3302199,48.4305343,306 - 2020 RICHMOND AVENUE,Accuro,NA
VERNON,-119.2775394,50.2624892,3 - 2802 34TH STREET,Launchpad,NORTH OKANAGAN PAEDIATRIC CLINIC
SURREY,-122.7984382,49.0311297,200 - 15331 16TH AVE,Intrahealth,HILLTOP MEDICAL CLINIC
VICTORIA,-123.3712656,48.4167534,547 MICHIGAN STREET,Oscar,VICTORIA COMMUNITY HEALTH CO-OP
VICTORIA,-123.3576434,48.455102,3461 COOK STREET,Oscar West,NA
VICTORIA,-123.3533691,48.4239009,1175 COOK STREET SUITE 107,Launchpad,NA
VICTORIA,-123.3573174,48.4140883,101A - 230 COOK STREET,Oscar,NA
VICTORIA,-123.3383175,48.4127734,16 ? 1594 FAIRFIELD RD,Osler,NA
RICHMOND,-123.1625568,49.1921585,5530 MILLER ROAD,Launchpad,AIR CANADA OCCUPATIONAL HEALTH SERVICES
VANCOUVER,-123.1259148,49.2611413,2775 LAUREL STREET - 5TH FLR,Accuro,NA
VICTORIA,-123.3695623,48.4481039,202-780 TOLMIE AVE,Accuro,C/O DR. J AND Y COPEN PROFESSIONAL INC
VICTORIA,-123.3695623,48.4481039,202-780 TOLMIE AVE,Accuro,VIHA
VANCOUVER,-123.1249085,49.2800387,300 - 808 NELSON ST,IntraHealth,COPEMAN HEALTHCARE CENTRE
PORT COQUITLAM,-122.7888271,49.2738783,350 - 2755 LOUGHEED HIGHWAY,Wolf,NA
WEST VANCOUVER,-123.2531609,49.350397,220 - 5317 HEADLAND DRIVE,Oscar,CAULFEILD VILLAGE MEDICAL CLINIC
COMOX,-124.9333003,49.689034,107C - 1966 GUTHRIE ROAD,Oscar Nerd,HIGHLAND MEDICAL
NORTH VANCOUVER,-123.0718856,49.3181729,110 - 1100 LONSDALE AVENUE,IntraHealth,NORTH VANCOUVER MEDICAL
MANSONS LANDING,-124.9840468,50.0589034,PO BOX 59,Osler,941 BEASLEY ROAD
ABBOTSFORD,-122.3098575,49.0393993,2061 PRIMROSE STREET,Plexia,NA
NEW WESTMINSTER,-122.9202066,49.2114392,204 - 625 5TH AVENUE,Osler,NA
COURTENAY,-125.0024939,49.6889334,559 6TH STREET,Oscar Nerd,COTTAGE MEDICAL CLINIC
LANGLEY,-122.6733484,49.1179171,19851 WILLOWBROOK DRIVE,Launchpad,VALLEY CENTRE MEDICAL CLINIC
VICTORIA,-123.3302189,48.4305523,309 2020  RICHMOND ROAD,Accuro,NA
COURTENAY,-125.0007425,49.6879189,788 GRANT AVENUE,Wolf,NA
COURTENAY,-124.9944659,49.6860442,201 - 1350 ENGLAND AVENUE,IntraHealth,COURTENAY MEDICAL ASSOCIATES
SIDNEY,-123.4020707,48.649913,101 - 9845 RESTHAVEN DRIVE,Osler,NA
SIDNEY,-123.4020707,48.649913,101 - 9845 RESTHAVEN DRIVE,Osler,NA
GABRIOLA ISLAND,-123.8435562,49.1744644,3 - 590 NORTH ROAD RR 3,Launchpad,GABRIOLA MIDWIFERY
DUNCAN,-123.7080793,48.7783306,170 CRAIG STREET,Oscar Nerd,MATRAEA CENTRE
DUNCAN,-123.7098645,48.7782337,186 KENNETH STREET,MedAccess,COLEMAN CLINIC
VICTORIA,-123.3527566,48.4288186,302 - 1711 COOK STREET,Osler,NA
SURREY,-122.842723,49.1774643,103A 13737 96TH AVENUE,IntraHealth,NA
NANAIMO,-123.9401617,49.1644685,360 WESLEY STREET,Accuro,NA
BRENTWOOD BAY,-123.4671024,48.581384,3 BOAT RAMP RD,Launchpad,TSARTLIP HEALTH CENTRE
VANCOUVER,-123.1233055,49.2640082,304 - 888 WEST 8TH AVENUE,Oscar Nerd,NA
SQUAMISH,-123.1540768,49.6983179,PO BOX 9200 - 37989 CLEVELAND AVENUE,Osler,DIAMOND HEAD HEALTH CENTRE
VICTORIA,-123.3749103,48.4566559,3544 BLANSHARD STREET,Osler,SAANICH PLAZA MEDICAL
KELOWNA,-119.4759184,49.8867769,2 - 1499 GORDON DRIVE,MedAccess,CENTURIA MEDICAL
LANGLEY,-122.610739,49.0965491,201 - 5171 221A STREET,Plexia,TLC MEDICAL
SALTSPRING ISLAND,-123.5080586,48.8611988,111 CORBETT ROAD,Oscar,NA
VICTORIA,-123.3524606,48.4254293,402 -1120 YATES ST,Osler,NA
PORT COQUITLAM,-122.7770807,49.2611585,1 - 2185 WILSON AVENUE,IntraHealth,WILSON CENTRE FAMILY PRACTICE
COURTENAY,-125.0007425,49.6879189,788 GRANT AVENUE,Wolf,NA
DELTA,-122.8909953,49.129115,103 - 6935 120TH STREET,MedAccess,NA
PENTICTON,-119.5828142,49.4780228,152 - 1848 MAIN STREET,Accuro,NA
CAMPBELL RIVER,-125.251841,50.0287757,1371 GREENWOOD STREET,Accuro,NA
NANAIMO,-123.9672873,49.1840472,102 - 1125 DUFFERIN CRESCENT,Accuro,NA
SIDNEY,-123.3951309,48.6488307,207 - 2537 BEACON AVENUE,Oscar,OCEAN PIER MEDICAL CENTRE
SQUAMISH,-123.1540768,49.6983179,PO BOX 9200 - 37989 CLEVELAND AVENUE,Osler,DIAMOND HEAD MEDICAL CLINIC
VICTORIA,-123.4985025,48.4480526,107 - 755 GOLDSTREAM AVENUE,Wolf,WESTWIND MEDICAL CLINIC
PORT COQUITLAM,-122.7770807,49.2611585,1 - 2185 WILSON AVENUE,IntraHealth,WILSON CENTRE FAMILY PRACTICE
COURTENAY,-124.9969041,49.6885853,UNIT E - 310 8TH STREET,IntraHealth,VALLEY CARE MEDICAL
VICTORIA,-123.3302199,48.4305343,302-2020 RICHMOND ROAD,Plexia,SURGICAL CONSULTANTS
COMOX,-124.9354686,49.6761738,B - 2002 COMOX AVENUE,Osler,SEASTAR FAMILY MEDICAL
DUNCAN,-123.7016451,48.7778858,350 FESTUBERT STREET,MedAccess,NA
ALERT BAY,-126.9430677,50.5941432,PO BOX 49,WOLF,NAMGIS HEALTH CENTRE
NANAIMO,-123.9618898,49.1852149,1450 WADDINGTON ROAD,MedAccess,ANCHOR FAMILY MEDICAL CLINIC
PRINCE GEORGE,-122.755414,53.9071621,109 - 1811 VICTORIA STREET,Launchpad,NA
VICTORIA,-123.3337925,48.4449543,310 - 1641 HILLSIDE AVENUE,MedAccess,LANSDOWNE FAMILY PRACTICE
VANCOUVER,-123.1259148,49.2611413,4145 - 2775 LAUREL STREET,Plexia,DIAMOND HEALTH CARE CENTRE
PARKSVILLE,-124.3151253,49.3196578,BOX 250 154 W MEMORIAL AVE,MedAccess,PARKSVILLE MEDICAL CLINIC
CAMPBELL RIVER,-125.2439502,50.0097063,375 2ND AVENUE,Launchpad,SUNSHINE WELLNESS CENTRE
FRUITVALE,-117.5425512,49.115288,PO BOX 610 - 1937 COLUMBIA GARDENS ROAD,Osler,BEAVER VALLEY CLINIC
PRINCE GEORGE,-122.7658118,53.9152453,211 - 2155 10TH AVENUE,Launchpad,NA
VICTORIA,-123.3524606,48.4254293,303 - 1120 YATES STREET,Nightingale,NA
VICTORIA,-123.337574,48.4434802,300 - 1537 HILLSIDE AVENUE,Accuro,NA
DELTA,-122.8923255,49.1631818,11944 88 AVENUE,Osler,PENGUIN MEDICAL FAMILY PRACTICE
SURREY,-122.8014317,49.0398873,101B - 2099 152ND STREET,IntraHealth,NA
ABBOTSFORD,-122.3252165,49.0527908,204 - 32450 SIMON AVENUE,Osler,WINDERMERE MEDICAL CLINIC
VICTORIA,-123.3337925,48.4449543,235-3066 SHELBOURNE STREET,Oscar Nerd,NA
DUNCAN,-123.7081361,48.7857933,201-2763 BEVERLY STREET,MedAccess,BEVERLY MEDICAL CLINIC
NEW WESTMINSTER,-122.8900893,49.2252684,100 - 200 KEARY STREET,Accuro,NA
PRINCE GEORGE,-122.755411,53.9085702,515 - 1669 VICTORIA STREET,MOIS,NA
PRINCE GEORGE,-122.755411,53.9085702,515 - 1669 VICTORIA STREET,MOIS,NA
VANCOUVER,-123.1259148,49.2611413,5TH FL - 2775 LAUREL STREET,Plexia,NA
BURNABY,-123.01893,49.2499871,207 - 3825 SUNSET STREET,Launchpad,NA
VANCOUVER,-123.1262048,49.2455931,4480 OAK STREET,Launchpad,BCCH - PAEDIATRICS AND ONCOLOGY
COMOX,-124.9333003,49.689034,107C - 1966 GUTHRIE ROAD,Oscar Nerd,HIGHLAND MEDICAL
NORTH VANCOUVER,-123.070512,49.3196669,302 - 145 EAST 13TH STREET,Plexia,NA
PENTICTON,-119.5754598,49.4829978,115 - 725 CARMI AVENUE,Plexia,NA
CAMPBELL RIVER,-125.246442,50.0252414,480 10TH AVENUE,Oscar Host,CEDAR STREET MEDICAL
VICTORIA,-123.3337925,48.4449543,347 - 3066 SHELBOURNE STREET,Oscar,ARNASON MEDICAL CORP
COMOX,-124.8841069,49.6847905,760 RADFORD RD,Oscar,PLUM MIDWIFERY
CRANBROOK,-115.7679929,49.5092137,123 10TH AVENUE SOUTH,Accuro,ASSOCIATED MEDICAL CLINIC
VANCOUVER,-123.1249085,49.2800387,300 808 NELSON ST,Intrahealth,THE COPEMAN CLINIC
KELOWNA,-119.4759184,49.8867769,3 - 1499 GORDON DRIVE,MedAccess,HEALTH WISE
WEST VANCOUVER,-123.2531609,49.350397,220 - 5317 HEADLAND DRIVE,Oscar,CAULFEILD VILLAGE MEDICAL CLINIC
COURTENAY,-125.0007425,49.6879189,788 GRANT AVENUE,Wolf,NA
COMOX,-124.9249126,49.6726789,2A - 1743 COMOX AVENUE,Accuro,NA
NANAIMO,-123.968844,49.1848149,1665 GRANT AVENUE,Launchpad,SENIORS HEALTH
WEST VANCOUVER,-123.1637713,49.3285852,1884 MARINE DRIVE,Oscar,OCEAN WALK MEDICAL CLINIC
NEW WESTMINSTER,-122.9202672,49.2131559,140 - 555 6TH STREET,Accuro,CB1 CARE POINT WESTMINSTER
PENTICTON,-119.577776,49.4831715,1481 GOVERNMENT STREET,Accuro,NA
VICTORIA,-123.3736739,48.454535,3460 SAANICH ROAD,Oscar,UPTOWN MEDICAL CLINIC
VANCOUVER,-123.1251089,49.2788011,702 - 1080 HOWE STREET,Wolf,SPECTRUM HEALTH CLINIC
MISSION,-122.3329837,49.1361326,7381 HURD STREET,MD Physician Services,HILLCREST MEDICAL CLINIC
CHILLIWACK,-121.9591197,49.1692838,303 - 9200 MARY STREET,Osler,NA
NA,-123.3747387,48.4564346,104-3551 Blanchard St,Accuro,REBALANCE MD
CAMPBELL RIVER,-125.2470422,50.0108693,B-191 DOGWOOD ST,Oscar Host,DOGWOOD MEDICAL CLINIC
COBBLE HILL,-123.6077965,48.7109162,27-1400 COWICHAN BAY ROAD,MedAccess,VALLEYVIEW TREATMENT CENTRE
COURTENAY,-125.0007286,49.6923804,343 3RD STREET,Oscar,COMOX VALLEY MIDWIFERY
MILL BAY,-123.5585109,48.6513996,230 - 2720 MILL BAY ROAD,MedAccess,MILL BAY MEDICAL CLINIC
VANCOUVER,-123.0802963,49.2525843,202-1193 KINGSWAY,Oscar Nerd,SOUTH COMMUNITY BIRTH PROGRAM
VERNON,-119.2739928,50.2842468,204-5100 ANDERSON WAY,MedAccess,BX MEDICAL
MAPLE RIDGE,-122.6522336,49.2181435,120 - 20528 LOUGHEED HWY,MedAccess,NA
VANCOUVER,-123.1222338,49.2637904,1407 - 805 WEST BROADWAY ST,Plexia,NA
COURTENAY,-124.9957191,49.6876569,B-325 11TH ST,Plexia,NA
KAMLOOPS,-120.3490578,50.6636177,4 - 1380 SUMMIT DRIVE,MedAccess,SUMMIT MEDICAL CLINIC
VANCOUVER,-123.1233055,49.2640082,204 - 888 WEST 8TH AVENUE,Accuro,NA
VANCOUVER,-123.1267045,49.2448408,RM 4E20 - 4500 OAK STREET,Launchpad,BC WOMENS HOSPITAL MATERNAL FETAL MEDICINE
VICTORIA,-123.3302199,48.4305343,206 - 2020 RICHMOND AVENUE,Accuro,WESTHEART CARDIOLOGY
KELOWNA,-119.4907762,49.8664696,202 - 2689 PANDOSY STREET,Osler,NA
BRENTWOOD BAY,-123.449952,48.5781126,7226 WEST SAANICH ROAD,MedAccess,BAYSIDE MEDICAL CENTER
LANGLEY,-122.6615738,49.1653769,5 - 8948 202ND STREET,MedAccess,SAFA MEDICAL CLINIC
VERNON,-119.2731517,50.2676382,3107 35TH AVENUE,Accuro,GENERAL SURGERY CLINIC
VANCOUVER,-123.1293008,49.2785704,514 - 1200 BURRARD STREET,Launchpad,NA
VICTORIA,-123.304772,48.4219712,1110 NEWPORT AVENUE,Accuro,NA
VICTORIA,-123.3712656,48.4167534,547 MICHIGAN AVENUE,Oscar,VICTORIA HEALTH CO-OP
PORT ALBERNI,-124.7917599,49.2639573,103 - 3949 MAPLE WAY,Osler,NA
QUESNEL,-122.4995197,52.9839724,697 FRONT STREET,Wolf,NA
PARKSVILLE,-124.3150098,49.3209432,101 - 156 MORISON AVENUE,MedAccess,PO BOX 220
LANGLEY,-122.6629203,49.1208293,B1A - 20202 66TH AVENUE,MedAccess,WILLOUGHBY MEDICAL CENTRE
WILLIAMS LAKE,-122.1412404,52.1263498,101 - 143 4TH AVENUE SOUTH,IntraHealth,ATWOOD MEDICAL CLINIC
VANCOUVER,-123.1067219,49.2812192,59 WEST PENDER STREET,Intrahealth VCH,PENDER COMMUNITY HEALTH CTR
NANAIMO,-123.968844,49.1848149,1665 GRANT AVENUE,Launchpad,NANAIMO PUBLIC HEALTH UNIT
VICTORIA,-123.3302199,48.4305343,309 - 2020 RICHMOND AVENUE,Accuro,NA
PORT ALBERNI,-124.801326,49.2513001,4 - 4565 WALLACE STREET,Osler,NA
NANAIMO,-123.968844,49.1848149,1665 GRANT AVENUE,Launchpad,NANAIMO PUBLIC HEALTH UNIT
BURNABY,-122.9946217,49.2255665,303 - 6411 NELSON AVENUE,Launchpad,NA
VANCOUVER,-123.1822355,49.2688325,3525 WEST 4TH AVENUE,Plexia,WEST COAST WOMEN'S CLINIC
CAMPBELL RIVER,-125.2462899,50.0116464,130 - 520 2ND AVENUE,Oscar West,CEDARWOOD SPECIALIST GROUP
SURREY,-122.7029933,49.124084,204 - 18730 FRASER HIGHWAY,IntraHealth,CLAYTON HEIGHTS MEDICAL CLINIC
DELTA,-122.8908904,49.138681,108 - 7445 120TH STREET,Osler,NA
NANAIMO,-123.9330141,49.1646557,103 - 650 SOUTH TERMINAL AVE,Intrahealth,NA
SQUAMISH,-123.1540768,49.6983179,PO BOX 9200 - 37989 CLEVELAND AVENUE,Osler,DIAMOND HEAD MEDICAL CLINIC
ABBOTSFORD,-122.2934399,49.0398923,203 - 2051 MCCALLUM ROAD,IntraHealth,GATEWAY HEALTH AND WELLNESS CENTRE
VICTORIA,-123.3712656,48.4167534,547 MICHIGAN STREET,Oscar,NA
VERNON,-119.2764726,50.2651145,3310 32ND AVENUE,MedAccess,VERNON FAMILY PRACTICE
CAMPBELL RIVER,-125.2606595,50.0315145,1477 ISLAND HIGHWAY,Oscar West,NA
VICTORIA,-123.3335973,48.4764127,103 - 1660 FELTHAM ROAD,Oscar Nerd,NA
VICTORIA,-123.3337925,48.4449543,305 - 3066 SHELBOURNE STREET,Plexia,NA
VANCOUVER,-123.1041039,49.2635036,2450 ONTARIO ST,Intrahealth VCH,RAVENSONG COMMUNITY HEALTH CENTRE
PITT MEADOWS,-122.6901377,49.2242969,103 - 12195 HARRIS ROAD,Osler,NA
CHILLIWACK,-121.9591271,49.1671473,1 - 45905 YALE ROAD,Oscar,SOUTHGATE  MEDICAL
VANCOUVER,-123.1196368,49.263577,2480 HEATHER STREET,Oscar,CITY VIEW MEDICAL CLINIC
NANAIMO,-123.9424186,49.1688971,340 CAMPBELL STREET,Intrahealth,CALEDONIAN CLINIC
NORTH VANCOUVER,-123.0725123,49.3184531,400 - 1133 LONSDALE AVENUE,MedAccess,NORTH SHORE HEART GROUP
VANCOUVER,-123.1208651,49.262601,2550 WILLOW STREET,Plexia,EYE CARE CENTRE - VGH
VICTORIA,-123.3337925,48.4449543,360 - 1641 HILLSIDE AVENUE,Launchpad,NA
SURREY,-122.8427538,49.1772129,709 - 13737 96TH AVENUE,Plexia,NA
RICHMOND,-123.1830756,49.1267089,204 - 3811 CHATHAM STREET,IntraHealth,STEVESTON MEDICAL CLINIC
SURREY,-122.842723,49.1774643,103A 13737 96TH AVENUE,IntraHealth,NA
VANCOUVER,-123.1259148,49.2611413,5153 2775 LAUREL STREET,Accuro,NA
VICTORIA,-123.3524606,48.4254293,405 - 1120 YATES STREET,Plexia,NA
VERNON,-119.267059,50.2719246,3 - 4010 27TH STREET,MedAccess,NA
CAMPBELL RIVER,-125.2509645,50.029453,280 - 1400 DOGWOOD STREET,MedAccess,QUINSAM MEDICAL GROUP
VICTORIA,-123.327759,48.4322939,1952 BAY STREET,Launchpad,RJH GERIATRICS
FRASER LAKE,-124.8494461,54.0588926,PO BOX 1000 130 CHOWNSUNKET,NH MOIS,FRASER LAKE MEDICAL CLINIC
ABBOTSFORD,-122.3782465,49.0581176,A100 - 3122 MT LEHMAN ROAD,Wolf,WALMART VIVA CARE MEDICAL CLINIC
VICTORIA,-123.3337925,48.4449543,388 - 1641 HILLSIDE AVENUE,Osler,NA
VICTORIA,-123.3337925,48.4449543,388 - 1641 HILLSIDE AVENUE,Osler,NA
SIDNEY,-123.4007936,48.647608,2A-2379 BEVAN AVE,MedAccess,PENINSULA MEDICAL
VICTORIA,-123.3667478,48.4237565,622 COURTNEY STREET,Osler,NA
VICTORIA,-123.3337925,48.4449543,235 - 3066 SHELBOURNE STREET,Oscar Nerd,NA
VICTORIA,-123.3337925,48.4449543,290 - 1641 HILLSIDE AVENUE,Launchpad,NA
VICTORIA,-123.3865464,48.4304232,PO BOX 17000 STN FORCES,Launchpad,CFB ESQUIMALT BASE LAB
BURNABY,-122.9516326,49.218783,202 - 7315 EDMONDS STREET,MedAccess,PRIMECARE MEDICAL CENTRE
ABBOTSFORD,-122.3122247,49.0520117,2 - 32904 VENTURA AVENUE,Launchpad,ABBOTSFORD MATERNITY CLINIC
VICTORIA,-123.3572855,48.4269747,203 - 941 PANDORA AVENUE,Launchpad,PSYCHIATRY
VICTORIA,-123.3747387,48.4564346,104 - 3551 BLANSHARD STREET,Accuro,REBALANCE
MAPLE RIDGE,-122.5928084,49.216191,106 - 22722 LOUGHEED HWY,Intrahealth,GREY CLINIC
VALEMOUNT,-119.2738994,52.8316408,1445 5TH AVENUE,NH MOIS,PO BOX 697
POWELL RIVER,-124.5279311,49.8387642,4539 MARINE AVENUE,Wolf,NA
VANCOUVER,-123.040184,49.2190888,350 - 3150 EAST 54TH AVENUE,Oscar West,COLLINGWOOD MEDICAL
VANCOUVER,-123.1222338,49.2637904,1603 - 805 WEST BROADWAY,Accuro,NA
PORT COQUITLAM,-122.7888271,49.2738783,350 - 2755 LOUGHEED HIGHWAY,Wolf,NA
CAMPBELL RIVER,-125.2462899,50.0116464,130 - 520 2ND AVENUE,Oscar West,CEDARWOOD SPECIALIST GROUP
CHILLIWACK,-121.9620983,49.167376,101 - 45625 HODGINS AVENUE,Oscar West,NA
MAPLE RIDGE,-122.6073795,49.2208137,B - 22195 DEWDNEY TRUNK ROAD,IntraHealth,NA
VICTORIA,-123.3302199,48.4305343,204 - 2020 RICHMOND AVENUE,Accuro,WESTHEART CARDIOLOGY
NANAIMO,-123.9604033,49.187537,206 - 1650 TERMINAL AVENUE,Plexia,NA
VICTORIA,-123.3337925,48.4449543,150 - 1641 HILLSIDE AVENUE,Oscar,NA
LANTZVILLE,-124.0740663,49.2504314,PO BOX 190 - 7186 LANTZVILLE ROAD,Osler,SOWS EAR MEDICAL CLINIC
RICHMOND,-123.1565066,49.1549014,120 - 6180 BLUNDELL ROAD,Launchpad,NA
NANAIMO,-123.9424186,49.1688971,340 CAMPBELL STREET,IntraHealth,CALEDONIAN CLINIC
KELOWNA,-119.4898652,49.856798,208 - 3330 RICHTER STREET,Accuro,NA
VANCOUVER,-123.1259148,49.2611413,2775 LAUREL STREET - 5TH FLR,Accuro,NA
VANCOUVER,-123.1848371,49.2492829,4186 DUNBAR STREET,Wolf,CHALDECOTT MEDICAL CLINIC
CUMBERLAND,-125.0255737,49.6191113,PO BOX 719 - 2765 DUNSMUIR AVENUE,Osler,NA
LANGLEY,-122.6629203,49.1208293,B1A - 20202 66TH AVENUE,MedAccess,WILLOUGHBY MEDICAL CENTRE
KAMLOOPS,-120.3528832,50.6723637,101 - 595 COLUMBIA STREET  WEST,MedAccess,NA
SECHELT,-123.7582599,49.4720403,5699 COWRIE STREET,Plexia,PO BOX 374
VICTORIA,-123.4320773,48.4666982,1 HOSPITAL WAY,Plexia,VICTORIA GENERAL HOSPITAL
VANCOUVER,-123.101404,49.2109907,235 SE MARINE DRIVE,MedAccess,MAIN AND MARINE CLINIC
DUNCAN,-123.7259253,48.7836505,3106 GIBBINS ROAD,Launchpad,NA
VICTORIA,-123.3353305,48.4262891,103 - 1625 OAK BAY AVENUE,Launchpad,VALENTUS CLINICS
VERNON,-119.2780528,50.2618796,3406 28TH AVENUE,Osler,NA
VICTORIA,-123.3123953,48.4635137,PO BOX 1700 STN CSC,Accuro,UVIC HEALTH SERVICES
SURREY,-122.7029933,49.124084,204 - 18730 FRASER HIGHWAY,IntraHealth,CLAYTON HEIGHTS MEDICAL CLINIC
COQUITLAM,-122.7954894,49.2834727,102 - 1173 THE HIGH STREET,MedAccess,NA
PRINCE GEORGE,-122.7491323,53.918151,1003 - 299 VICTORIA STREET,Accuro,NA
VANCOUVER,-123.1164639,49.2102923,301-470 SW MARINE DRIVE,MedAccess,MARINE GATEWAY MEDICAL CLINIC
NORTH VANCOUVER,-123.070512,49.3196669,303 - 145 EAST 13TH STREET,Osler,NA
VANDERHOOF,-124.0087932,54.0283077,3348 HOSPITAL ROAD,MOIS,OMINECA MEDICAL CLINIC
VANDERHOOF,-124.0087932,54.0283077,3348 HOSPITAL ROAD,MOIS,OMENICA MEDICAL CLINIC
CHILLIWACK,-121.9638335,49.166828,45600 MENHOLM ROAD,Oscar Nerd,CHILLIWACK HOSP. LEVEL 1 WING B
BURNABY,-123.0230517,49.2544609,100B - 3300 BOUNDARY ROAD,Oscar,SUMMITVIEW MEDICAL CLINIC
VICTORIA,-123.4985025,48.4480526,107 - 755 GOLDSTREAM AVENUE,Wolf,WESTWIND MEDICAL CLINIC
PORT ALBERNI,-124.7984676,49.2525015,4200 10TH AVENUE,Launchpad,ATTENTION NURSING STATION
HAZELTON,-127.6525697,55.257373,BAG 999 - 2510 HIGHWAY 62,NH MOIS,WRINCH MEMORIAL HOSPITAL
COQUITLAM,-122.8582747,49.2492922,1199 AUSTIN AVENUE,IntraHealth,GAIN MEDICAL CLINIC
MISSION,-122.2965103,49.1400659,33525 7TH AVENUE,Oscar,7TH AVENUE MEDICAL CLINIC
NORTH VANCOUVER,-123.072296,49.3230612,201-101 16TH STREET WEST,Plexia,NA
VICTORIA,-123.3837134,48.4489151,4 - 101 BURNSIDE ROAD WEST,Oscar,NA
VANCOUVER,-123.1550285,49.2322018,5960 E BOULEVARD,Intrahealth,HIGHROADS MEDICAL CLINIC - KERRISDALE
COQUITLAM,-122.8666498,49.2493467,102 - 1015 AUSTIN AVENUE,Oscar West,AUSTIN FAMILY PRACTICE
VICTORIA,-123.3302199,48.4305343,205 - 2020 RICHMOND AVENUE,Zopyrus (LS Chart),NA
ABBOTSFORD,-122.2233358,49.0447513,105 - 2362 WHATCOM ROAD,Wolf,MOUNTAIN VILLAGE WALK-IN CLINIC
VANCOUVER,-123.1259148,49.2611413,2775 LAUREL STREET - 6TH FLR,Launchpad,DIAMOND HEALTH CARE CTR OBSTETRICS
NANAIMO,-124.0136195,49.206882,2778 104TH STREET,Oscar,THE FAMILY PRACTICE CLINIC
VANCOUVER,-123.1391246,49.2653232,1530 WEST 7TH AVENUE,Wolf,SEYMOUR HEALTH CENTRE
QUALICUM BEACH,-124.4479828,49.3464452,3 - 219 FERN ROAD,Osler,QUALICUM BEACH ASSOCIATES
SURREY,-122.7997353,49.1875032,102-10183 152A ST,eOscar,NORTH YORK PLAZA
VANCOUVER,-123.0802963,49.2525843,202 1193 KINGSWAY,Oscar Nerd,SOUTH COMMUNITY BIRTH PROGRAM
QUESNEL,-122.4970039,52.9800021,1 - 458 REID STREET,Launchpad,GOLD CITY WALK IN CLINIC
VANCOUVER,-123.1099294,49.2628311,400 - 210 WEST BROADWAY,Elliott,NA
DUNCAN,-123.7016705,48.7776431,101 - 330 FESTUBERT STREET,MedAccess,ALDERLEA CLINIC
COURTENAY,-124.9815476,49.6740725,1700 - 2751 CLIFFE AVENUE,Intrahealth,SOUTHWOOD MEDICAL CLINIC
VICTORIA,-123.3302189,48.4305523,302 2020 RICHMOND RD,Plexia,NA
KELOWNA,-119.493782,49.8833003,16 - 1710 ELLIS STREET,MedAccess,NA
NANAIMO,-123.9415787,49.1643425,105 360 SELBY STREET,Oscar Host,SUNFLOWER MIDWIFE
NANAIMO,-123.9809313,49.1820616,201-1801 BOWEN RD,Accuro,NA
REVELSTOKE,-118.1952793,50.998722,PO BOX 590,MedAccess,SELKIRK MEDICAL GROUP
CHILLIWACK,-121.9620983,49.167376,101 - 45625 HODGINS AVENUE,Oscar West,NA
VANCOUVER,-123.1275058,49.2784866,770 - 1190 HORNBY STREET,Accuro,PACIFIC GASTROENTEROLOGY ASSOCIATES
BRENTWOOD BAY,-123.449952,48.5781126,7226 WEST SAANICH ROAD,Plexia,NA
OLIVER,-119.549124,49.1828218,107-291C FAIRVIEW RD,MedAccess,BRIDGESIDE MEDICAL CLINIC
NEW WESTMINSTER,-122.8933951,49.2253096,201 - 245 EAST COLUMBIA ST,Accuro,KEARY STREET MEDICAL CTR
KELOWNA,-119.4760365,49.8765707,1111 SPRINGFIELD ROAD,MedAccess,GROUP ONE MEDICAL
VANCOUVER,-123.1259148,49.2611413,2775 LAUREL STREET - 5TH FLR,Accuro,NA
VICTORIA,-123.3837134,48.4489151,4 - 101 BURNSIDE ROAD WEST,Oscar,BURNSIDE FAMILY PRACTICE
VICTORIA,-123.3736739,48.454535,3460 SAANICH RD,Oscar,UPTOWN MEDICAL CLINIC
VICTORIA,-123.3837134,48.4489151,101 BURNSIDE RD W,Oscar,BURNSIDE FAMILY MEDICAL CLINIC
VICTORIA,-123.3751198,48.45661,219-3561 BLANSHARD STREET,Osler,UPTOWN MALL-TOP LEVEL
MAPLE RIDGE,-122.6059212,49.2157848,308 -  22230 NORTH AVENUE,MedAccess,NA
COQUITLAM,-122.7980845,49.282919,109 - 2957 GLEN DRIVE,Oscar,NA
PARKSVILLE,-124.3242845,49.3108074,489 ALBERNI HWY,Launchpad,OCEANSIDE HEALTH CENTRE URGENT CARE
LANGLEY,-122.6629203,49.1208293,B1A - 20202 66TH AVENUE,MedAccess,WILLOUGHBY MEDICAL CENTRE
VICTORIA,-123.4018369,48.4300191,918 ESQUIMALT ROAD,MedAccess,NA
VICTORIA,-123.4107143,48.4294853,3 - 1153 ESQUIMALT ROAD,Intrahealth,NA
VICTORIA,-123.342568,48.4425235,1454 HILLSIDE AVENUE,Wolf,HILLSIDE SENIORS HEALTH CENTRE
VANCOUVER,-123.1210594,49.2630115,400 - 750 WEST BROADWAY,Wolf,NA
VICTORIA,-123.327759,48.4322939,1952 BAY STREET,Launchpad,RJH GERIATRICS
TERRACE,-128.5911069,54.5189215,500 - 4634 PARK AVENUE,Osler,NA
SIDNEY,-123.3951309,48.6488307,207 - 2537 BEACON AVENUE,Oscar,OCEAN PIER MEDICAL
CAMPBELL RIVER,-125.2462899,50.0116464,220 - 520 2ND AVENUE,Plexia,NA
NORTH VANCOUVER,-123.0697176,49.3202668,208-168 EAST 13TH STREET,Plexia,NA
ROCK CREEK,-119.0045837,49.0603603,PO BOX 170 100 CUTOFF ROAD,Intrahealth IHA,ROCK CREEK MEDICAL CLINIC
VANCOUVER,-123.1398271,49.2694373,517-1540 WEST 2ND AVENUE,Launchpad,PACIFIC MIDWIFERY
VANCOUVER,-123.1210594,49.2630115,1314 - 750 WEST BROADWAY,Osler,NA
VICTORIA,-123.3679173,48.4306214,11 - 536 HERALD STREET,Osler,NA
100 MILE HOUSE,-121.2940915,51.6380962,P O BOX 879,Oscar West,NA
PRINCE RUPERT,-130.3254897,54.3139286,320 2ND AVENUE,MedAccess,CASEY MEDICAL CLINIC
VANCOUVER,-123.1281537,49.2793415,490 - 1144 BURRARD STREET,IntraHealth,NA
LANGLEY,-122.6114124,49.096327,204 - 22112 52ND AVENUE,IntraHealth,MURRAYVILLE FAMILY PRACTICE
SURREY,-122.7303855,49.1025534,102 - 17770 56TH AVENUE,Launchpad,CLOVER CARE MEDICAL CLINIC
VANCOUVER,-123.1289966,49.2805979,5910B-1081 BURRARD STREET,Launchpad,NA
COURTENAY,-124.9969041,49.6885853,UNIT E-310-8TH STREET,Intrahealth,VALLEY CARE MEDICAL
COMOX,-124.9230016,49.6720753,100 1695 COMOX AVENUE,Wolf,COMOX MEDICAL CLINCI
COURTENAY,-125.0007286,49.6923804,343 3rd St,Oscar,COMOX VALLEY MIDWIFERY BIRTH TIDES CLINIC
VANCOUVER,-123.2462012,49.2658451,310 - 5950 UNIVERSITY BOULEVARD,Oscar West,NA
NANAIMO,-123.0564424,49.2838079,2778-104TH ST,Oscar,NA
BRENTWOOD BAY,-123.4468102,48.5768922,103 - 7143 WEST SAANICH RD,Osler,NA
CHILLIWACK,-121.9574496,49.1692391,106 - 9193 MAIN STREET,Oscar West,NA
VICTORIA,-123.3302199,48.4305343,404 - 2020 RICHMOND ROAD,Wolf,NA
VICTORIA,-123.3639443,48.4268522,713 JOHNSTON STREET,Wolf,COOL AID COMMUNITY HEALTH
VANCOUVER,-123.1262048,49.2455931,4480 OAK STREET,Launchpad,BC CHILDREN'S HOSP NEUROLOGY RM K3-170
VANCOUVER,-123.1004191,49.2743216,1141 MAIN STREET,MDIT,MAIN STATION CLINIC
KAMLOOPS,-120.3292991,50.6724356,577 5TH AVENUE,MedAccess,WHEATGRASS MEDICAL CLINIC
VICTORIA,-123.327759,48.4322939,1952 BAY STREET,Oscar Nerd,RJH DOCTOR'S LOUNGE
CAMPBELL RIVER,-125.214347,49.9698836,203 - 2276 SOUTH ISLAND HIGHWAY,Oscar Nerd,SEAWATCH MEDICAL
VICTORIA,-123.3832251,48.4875777,304 - 4420 CHATTERTON WAY,Oscar Nerd,NA
LADYSMITH,-123.8180031,48.9905193,PO BOX 2011 - 311 3RD AVENUE,Launchpad,NA
PRINCE RUPERT,-130.3230623,54.3166808,100-101 1ST AVE EAST,MedAccess,BOX 487 LARGE CLINIC
PRINCE RUPERT,-130.3230623,54.3166808,100-101 1ST AVE E,MedAccess,LARGE CLINIC - PO BOX 487
DUNCAN,-123.7259253,48.7836505,3106 GIBBINS ROAD,MedAccess,COWICHAN INTERNISTS
WILLIAMS LAKE,-122.1412404,52.1263498,201 - 143 4TH AVENUE SOUTH,Intrahealth,YORSTON MEDICAL CLINIC
KITIMAT,-128.6531635,54.0543068,284 CITY CENTRE,Osler,CITY CENTRE MEDICAL CL
COURTENAY,-124.9907309,49.6832661,1736 ENGLAND AVENUE,Oscar Nerd,INTERVENTION PLUS PAIN CLINIC
VANCOUVER,-123.1213803,49.2635965,101 - 777 WEST BROADWAY,IntraHealth,THE DOCTORS OFFICE
SURREY,-122.8405364,49.174526,201 - 13798 94A AVENUE,Accuro,NA
NANAIMO,-123.9424186,49.1688971,340 CAMPBELL STREET,IntraHealth,CALEDONIAN CLINIC
WHITE ROCK,-122.7945119,49.0295511,101 - 15451 RUSSELL AVENUE,IntraHealth,WHITE ROCK MEDICAL
NEW WESTMINSTER,-122.8933071,49.2260098,203 - 301 EAST COLUMBIA STREET,Launchpad,NA
PORT ALBERNI,-124.7988067,49.2462943,2 - 3855 9TH AVE,Accuro,NA
VICTORIA,-123.3491162,48.415768,1284 FAIRFIELD ROAD,Wolf,SITKA HEALTH CENTRE
PRINCE GEORGE,-122.7808759,53.9122582,1306 CENTRAL STREET EAST,MOIS,TWO RIVERS MEDICAL CENTRE
DUNCAN,-123.7016451,48.7778858,350 FESTUBERT STREET,MedAccess,NA
MAPLE RIDGE,-122.6556484,49.2197182,140 - 20395 LOUGHEED HIGHWAY,Intrahealth,GOLDEN EARS MEDICAL CLINIC
PORT ALBERNI,-124.7820624,49.248456,3949 PORT ALBERNI HWY,Osler,NA
WHITE ROCK,-122.7945119,49.0295511,101 - 15451 RUSSELL AVENUE,IntraHealth,WHITE ROCK MEDICAL
VICTORIA,-123.3747387,48.4564346,104 - 3551 BLANSHARD STREET,Accuro,REBALANCE MD
NANAIMO,-124.0054095,49.2061181,84C 3200 NORTH ISLAND HWY,Accuro,WELLINGTON MEDICAL CLINIC
NANAIMO,-123.9809177,49.1836371,205 - 1808 BOWEN ROAD,IntraHealth,LEXITOR MEDICAL CLINIC
PORT ALBERNI,-124.7997819,49.251571,4411 WALLACE STREET,Launchpad,NA
VANCOUVER,-123.0697488,49.2701451,1623 COMMERCIAL DRIVE,Launchpad,CBI CARE POINT MEDICAL CENTRE COMMERCIAL
RICHMOND,-123.1482094,49.1692939,250 - 6091 GILBERT ROAD,Plexia,NA
VANCOUVER,-123.1210594,49.2630115,915 - 750 WEST BROADWAY,Plexia,NA
CAMPBELL RIVER,-125.2370109,50.0100269,142 THULIN STREET,Launchpad,OCEAN GROVE MIDWIFERY
COURTENAY,-124.9766727,49.6672968,3199 CLIFFE AVENUE,Oscar Nerd,COMOX VALLEY MEDICAL CLINIC
VANCOUVER,-123.1259148,49.2611413,2775 LAUREL ST - 7TH FLR,iClinic,LUNG CENTRE DIAMOND HEALTH CARE CNTR
VANCOUVER,-123.1210594,49.2630115,1208 - 750 WEST BROADWAY,Accuro,NA
CHILLIWACK,-121.9591197,49.1692838,401 - 9200 MARY STREET,Osler,NA
VERNON,-119.274674,50.2637965,200 - 3207 30TH AVENUE,Osler,VERNON MEDICAL CLINIC
NEW WESTMINSTER,-122.8933071,49.2260098,403 - 301 EAST COLUMBIA STREET,IntraHealth,PACIFIC NORTHWEST RHEUMATOLOGY
QUALICUM BEACH,-124.4474687,49.3465998,703 BEACH ROAD,Osler,BEACH MEDICAL CLINIC
VANCOUVER,-123.1259148,49.2611413,2775 LAUREL STREET - 7TH FLR,iClinic,THE LUNG CENTRE DIAMOND HEALTH CARE CNTR
DELTA,-123.0682155,49.0292035,1443 VIEW CRESCENT,MOIS,VIEW MEDICAL
VICTORIA,-123.3661099,48.4315775,2ND FLR - 605 DISCOVERY ST,Accuro,CBI HEALTH CENTRE
VANCOUVER,-123.1162884,49.2608664,300 - 555 WEST 12TH AVENUE,eIVF,OLIVE FERTILITY CLINIC
SMITHERS,-127.1706938,54.7804892,PO BOX 3760 - 1209 MAIN STREET,MOIS,CENTRAL SQUARE MEDICAL
VICTORIA,-123.3320778,48.4612246,230-1590 CEDAR HILL CROSS ROAD,Oscar Host,NA
VANCOUVER,-123.1281537,49.2793415,490 - 1144 BURRARD STREET,IntraHealth,NA
VICTORIA,-123.3533691,48.4239009,204-1175 COOK ST,Osler,NA
VICTORIA,-123.3308402,48.4300629,1902 RICHMOND ROAD,Oscar West,JUBILEE MEDICAL
FERNIE,-115.0617743,49.5081052,PO BOX 2019 - 901 5TH AVENUE,Intrahealth,ROCKY MOUNTAIN HEALTH CENTRE
VANCOUVER,-123.1259148,49.2611413,10TH FLR - 2775 LAUREL STREET,Accuro,HAEMATOLOGY AND BMT PROGRAM
SOOKE,-123.7213071,48.3787718,1300 - 6660 SOOKE ROAD,MD Physician Services,WEST COAST FAMILY PRACTICE
NANAIMO,-124.0054095,49.2061181,84C - 3200 N ISLAND HIGHWAY,IntraHealth,WELLINGTON MEDICAL CLINIC
ABBOTSFORD,-122.3782465,49.0581176,3122 MT LEHMAN ROAD,Wolf,VIVA CARE MEDICAL CLINIC AT WALMART
PENTICTON,-119.5838601,49.4687254,110 - 2504 SKAHA LAKE ROAD,MedAccess,HEARTLINE MEDICAL
SIDNEY,-123.4007936,48.647608,2A 2379 BEVAN AVE,MedAccess,PENINSULA MEDICAL CLINIC
COURTENAY,-124.9982277,49.6882022,941 A ENGLAND AVENUE,Launchpad,COMOX VALLEY HOME & COMMUNITY CARE
FORT ST JOHN,-120.8394154,56.2574906,8407 - 112TH AVENUE,Launchpad,NA
VICTORIA,-123.3647222,48.4283334,PO BOX 1700 STN CSC,Accuro,UNIVERSITY HEALTH SERVICES - UNIVERSITY OF VICTORIA
NANAIMO,-123.968844,49.1848149,1665 GRANT AVENUE,Launchpad,NA
TERRACE,-128.5911069,54.5189215,4634 PARK AVENUE - 3RD FLR,IntraHealth,PARK AVE MEDICAL CLINIC
PORT ALBERNI,-124.7999858,49.2543007,4485 ROGER STREET,Osler,DR MAGDY FOUAD MEDICAL
KELOWNA,-119.4908762,49.8725258,2311 PANDOSY STREET,Accuro,NA
CUMBERLAND,-125.0255737,49.6191113,2765 DUNSMUIR AVE PO BOX 719,Osler,DUNSMUIR MEDICAL CLINIC
CAMPBELL RIVER,-125.2370109,50.0100269,142 THULIN STREET,Launchpad,OCEAN GROVE MIDWIFERY
TOFINO,-125.9072416,49.151284,PO BOX 189 - 220 1ST STREET,Wolf,TONQUIN MEDICAL CLINIC
PORT ALBERNI,-124.7988067,49.2462943,3 - 3855 9TH AVENUE,Osler,NA
BURNABY,-122.9946217,49.2255665,201 - 6411 NELSON AVENUE,Wolf,NA
SURREY,-122.7303855,49.1025534,102 - 17770 56TH AVENUE,Launchpad,CLOVER CARE MEDICAL CLINIC
FORT LANGLEY,-122.5818142,49.1687943,PO BOX 99 - 23148 96TH AVENUE,IntraHealth,FORT LANGLEY FAMILY PRACTICE
VICTORIA,-123.3639443,48.4268522,713 JOHNSTON STREET,Wolf,COOL AID COMMUNITY HEALTH
BURNABY,-123.0056317,49.231305,11 - 4429 KINGSWAY,MedAccess,OLD ORCHARD MEDICAL CLINIC
VICTORIA,-123.3491162,48.415768,1282 FAIRFIELD ROAD,IntraHealth,MOSS ROCK MEDICAL CENTRE
NANAIMO,-123.9424186,49.1688971,340 CAMPBELL STREET,IntraHealth,CALEDONIAN CLINIC
PRINCE GEORGE,-122.7658118,53.9152453,208 - 2155 10TH AVENUE,MOIS,NA
SURREY,-122.8014605,49.0372746,201 - 1959 152ND STREET,Accuro,NA
NANAIMO,-123.9604033,49.187537,101 - 1650 TERMINAL AVENUE,Accuro,OCEANVIEW PEDIATRIC CONSULTANTS
VICTORIA,-123.3661099,48.4315775,605 DISCOVERY STREET,Accuro,CBI HEALTH CENTRE
FRASER LAKE,-124.8494461,54.0588926,PO BOX 1000 - 130 CHOWSUNKET STREET,NH MOIS,NA
VICTORIA,-123.3656136,48.4390321,301 - 740 HILLSIDE AVENUE,iClinic,WESTERN CARDIOLOGY
VICTORIA,-123.3843917,48.4904198,220 - 4460 CHATTERTON WAY,Wolf,NA
MISSION,-122.3315008,49.1342522,32243 HURD STREET,Wolf,THE MISSION MEDICAL GROUP
VICTORIA,-123.3337925,48.4449543,310 - 1641 HILLSIDE AVENUE,MedAccess,LANSDOWNE FAMILY PRACTICE
RICHMOND,-123.1565066,49.1549014,150 - 6180 BLUNDELL ROAD,Launchpad,NA
LADYSMITH,-123.8275181,48.99582,1111 4TH AVENUE,Wolf,LADYSMITH FAMILY PRACTICE
PARKSVILLE,-124.3151253,49.3196578,PO BOX 250 - 154 WEST MEMORIAL AVE,MedAccess,PARKSVILLE MEDICAL CLINIC
CAMPBELL RIVER,-125.243085,50.0113996,360 2ND AVENUE,Oscar West,HILLSIDE MEDICAL
VICTORIA,-123.3491162,48.415768,1284 FAIRFIELD ROAD,Wolf,SITKA HEALTH CENTRE
VERNON,-119.2749533,50.260264,301 - 3210 25TH AVENUE,Osler,NA
VICTORIA,-123.4252728,48.4731157,1506 BURNSIDE ROAD WEST,Oscar Nerd,ROUNDHOUSE MIDWIVES
VANCOUVER,-123.1289966,49.2805979,B180 - 1081 BURRARD STREET,Launchpad,HEALTHY HEART PROGRAM PREVENTION CLINIC
VANCOUVER,-123.2442035,49.2648819,G285 - 2211 WESBROOK MALL,Launchpad,SLEEP DISORDER CLINIC
LAKE COWICHAN,-124.0572307,48.8233763,301 - 138 SOUTH SHORE ROAD,MedAccess,PO BOX 1219
SURREY,-122.8428948,49.1745321,320 - 13710 94A AVENUE,Accuro,NA
KELOWNA,-119.4897743,49.8575331,102 - 3320 RICHTER STREET,Launchpad,MISSION MEDICAL CENTRE
VANCOUVER,-123.1262048,49.2455931,ROOM 1C30 - 4480 OAK STREET,Launchpad,NA
DUNCAN,-123.7081361,48.7857933,201 - 2763 BEVERLEY STREET,MedAccess,BEVERLEY CLINIC
NANAIMO,-124.0256115,49.2345195,6010 BRICKYARD RD,Intrahealth,CALEDONIAN MEDICAL CLINIC
ALERT BAY,-126.9430677,50.5941432,PO BOX 290 48 SCHOOL ROAD,Launchpad,NAMGIS HEALTH CENTRE
VANCOUVER,-123.1259148,49.2611413,2775 LAUREL STREET - 9TH FLR,iClinic,NA
VANCOUVER,-123.0974239,49.2782674,165 - 288 EAST GEORGIA STREET,Wolf,CHINATOWN CENTRE MEDICAL CLINIC
VICTORIA,-123.3661201,48.431871,601A DISCOVERY STREET,Oscar,VICTORIA LIPID CLINIC
COQUITLAM,-122.7950209,49.2769273,56 - 2991 LOUGHEED HIGHWAY,Oscar Nerd,ABLE-CARE MEDICAL CLINIC
FERNIE,-115.0617743,49.5081052,PO BOX 2019 - 901 5TH AVENUE,Intrahealth,ROCKY MOUNTAIN HEALTH CENTRE
VANCOUVER,-123.1285124,49.2856676,1233 HARO STREET,Launchpad,HARO PARK CENTRE
NORTH VANCOUVER,-123.0725123,49.3184531,300 - 1133 LONSDALE AVENUE,IntraHealth,NA
SIDNEY,-123.3951309,48.6488307,207 - 2537 BEACON AVENUE,Oscar,OCEAN PIER MEDICAL CENTRE
VANCOUVER,-123.1267045,49.2448408,RM 1T10 4500 OAK STREET,Launchpad,BC WOMENS HOSPITAL MATERNAL FETAL MEDICINE
VANCOUVER,-123.1259148,49.2611413,4219 - 2775 LAUREL STREET,Plexia,NA
BURNABY,-122.8981429,49.2526712,240 - 9600 CAMERON STREET,Oscar,NA
COMOX,-124.9333003,49.689034,107C - 1966 GUTHRIE ROAD,Oscar Nerd,HIGHLAND MEDICAL
VICTORIA,-123.3337925,48.4449543,135 - 3066 SHELBOURNE STREET,MedAccess,NA
COURTENAY,-124.9969041,49.6885853,UNIT E - 310 8TH STREET,IntraHealth,WASHINGTON PARK CLINIC
GALIANO,-123.3207873,48.8714769,SITE 4 C19 RR1 - 908 BURRILL ROAD,Wolf,GALIANO HEALTH CARE CENTRE
VICTORIA,-123.3228272,48.4324038,203 - 1990 FORT STREET,Accuro,NA
HOUSTON,-126.6524369,54.3961409,PO BOX 538,NH MOIS,PRIMARY CARE CLINIC
NANAIMO,-123.9655628,49.186782,1675 GRANT AVENUE,Launchpad,NANAIMO PUBLIC HEALTH UNIT
VANCOUVER,-123.1249085,49.2800387,300 808 NELSON ST,IntraHealth,COPEMAN HEALTHCARE CENTRE
FERNIE,-115.0623902,49.5022032,PO BOX 820,Intrahealth,SPARLING EAST MEDICAL CLINIC
CHEMAINUS,-123.7163167,48.9262953,9892 ESPLANADE STREET,MedAccess,CHEMAINUS MEDICAL CLINIC
COURTENAY,-124.9944659,49.6860442,201 - 1350 ENGLAND AVENUE,IntraHealth,COURTENAY MEDICAL ASSOCIATES
DUNCAN,-123.7102883,48.7790178,100-190 INGRAM STREET,Accuro,THE MEDICAL SPECIALISTS CLINIC
DELTA,-123.0799188,49.0901877,5132 LADNER TRUNK ROAD,Wolf,LADNER CENTRE MEDICAL
BURNABY,-123.0167063,49.2330893,104 - 3965 KINGSWAY,Wolf,CENTRAL PARK MEDICAL CLINIC
VANCOUVER,-123.1222338,49.2637904,1605 - 805 WEST BROADWAY,Osler,NA
VICTORIA,-123.3337925,48.4449543,260 - 1641 HILLSIDE AVENUE,Osler,NA
VANCOUVER,-123.1353675,49.2636063,300 - 1367 WEST BROADWAY,IDEAS,NA
VANCOUVER,-123.1210594,49.2630115,1314 - 750 WEST BROADWAY,Osler,NA
VICTORIA,-123.3661099,48.4315775,605 DISCOVERY STREET,Accuro,CBI HEALTH CENTRE - VICTORIA
LANGLEY,-122.6502877,49.1079098,101 - 5796 GLOVER ROAD,MedAccess,GLOVER MEDICAL CLINIC
CAMPBELL RIVER,-125.2399867,50.0232284,101 - 901 ISLAND HWY,Oscar West,NA
VICTORIA,-123.3337976,48.4484534,150 - 3200 SHELBOURNE STREET,Launchpad,NA
VANCOUVER,-123.1267045,49.2448408,C234 - 4500 OAK STREET,Launchpad,DEPARTMENT OF MEDICAL GENETICS
VANCOUVER,-123.0892023,49.2818291,201 - 330 HEATLEY AVENUE,Launchpad,STATHCONA MENTAL HEALTH
DUNCAN,-123.7098645,48.7782337,186 KENNETH STREET,MedAccess,COLEMAN CLINIC
ABBOTSFORD,-122.3246453,49.0539612,102 - 2845 CRUICKSHANK STREET,IntraHealth,NA
COQUITLAM,-122.7954894,49.2834727,102 - 1173 THE HIGH STREET,MedAccess,EAGLE RIDGE MEDICAL CLINIC
SURREY,-122.8804774,49.0532438,100 - 12321 BEECHER STREET,IntraHealth,NA
VERNON,-119.274674,50.2637965,200 - 3207 30TH AVENUE,Osler,NA
RICHMOND,-123.1482094,49.1692939,720 - 6091 GILBERT ROAD,Launchpad,NA
SURREY,-122.8942151,49.1635909,403 - 11861 88TH AVENUE,Plexia,NA
SURREY,-122.8293453,49.1156282,106-14199-62 AVE,Intrahealth,NA
ABBOTSFORD,-122.3049948,49.0456959,2415 WARE STREET,Oscar,NA
VANCOUVER,-123.2441311,49.264794,3500 - 2215 WESBROOK MALL,Plexia,CENTRE FOR BRAIN HEALTH
NANAIMO,-123.9809177,49.1836371,205 - 1808 BOWEN ROAD,Intrahealth,LEXITOR MEDICAL CLINIC
BRENTWOOD BAY,-123.4473827,48.5770682,C1 - 7159 WEST SAANICH RD,Launchpad,DANDELION MIDWIFERY
VANCOUVER,-123.1259148,49.2611413,9TH FL - 2775 LAUREL STREET,iClinic,DIAMOND HEALTH CARE CENTRE
SURREY,-122.7977121,49.1931735,10 - 15300 105TH AVENUE,Osler,NA
VICTORIA,-123.3524606,48.4254293,405-1120 YATES ST,Plexia,NA
VANCOUVER,-123.2442035,49.2648819,M334 - 2211 WESBROOK MALL,InputHealth,UBC STUDENT HEALTH SERVICES
SURREY,-122.8428948,49.1745321,210 - 13710 94A AVENUE,Plexia,SURREY RESPIROLOGY
SALMON ARM,-119.2872144,50.6991432,PO BOX 1870,MedAccess,MOUNT IDA MEDICAL CLINIC
DUNCAN,-123.7091737,48.7840313,UNIT A - 921 CANADA AVENUE,MedAccess,SOMENOS MEDICAL CLINIC
VICTORIA,-123.3302199,48.4305343,202-2020 RICHMOND RD,Accuro,NA
NANAIMO,-123.968844,49.1848149,1665 GRANT AVENUE,Launchpad,VANCOUVER ISLAND HEALTH AUTHORITY NANAIMO HLTH
COMOX,-124.9632684,49.6896559,2450 BACK ROAD,Launchpad,NA
VANCOUVER,-123.1259148,49.2611413,2775 LAUREL STREET - 6TH FLR,Accuro,DIAMOND HEALTH CARE CENTRE
VICTORIA,-123.3639443,48.4268522,713 JOHNSTON STREET,Wolf,COOL AID COMMUNITY HEALTH
COMOX,-124.8841069,49.6847905,760 RADFORD ROAD,Oscar,PLUM MIDWIFERY
NANAIMO,-123.9618898,49.1852149,201 -1450 WADDINGTON ROAD,Accuro,NA
CAMPBELL RIVER,-125.2411602,50.0071696,277 EVERGREEN ROAD,Oscar West,ALDER MEDICAL CENTRE
KELOWNA,-119.4930484,49.890011,204 - 1353 ELLIS STREET,Osler,NA
SECHELT,-123.7568067,49.4766821,103 5631 INLET AVENUE,Plexia,BOX 799
VANCOUVER,-123.1281537,49.2793415,590 - 1144 BURRARD STREET,Accuro,BURRARD ORTHOPAEDIC CLINIC
VANCOUVER,-123.1293008,49.2785704,406 - 1200 BURRARD STREET,Plexia,NA
NORTH VANCOUVER,-123.0728972,49.3182724,102 - 1111 LONSDALE AVENUE,Launchpad,NORTH SHORE EYE ASSOCIATES
VANCOUVER,-123.040184,49.2190888,350 - 3150 EAST 54TH AVENUE,Oscar West,COLLINGWOOD MEDICAL
VANCOUVER,-123.1259148,49.2611413,2775 LAUREL STREET - 6TH FLR,Accuro,DIAMOND HEALTH CARE CTR DEPT OF UROLOGY
KELOWNA,-119.4890486,49.8404945,3970 LAKESHORE ROAD,Osler,LAKESHORE MEDICAL CLINIC
VANCOUVER,-123.1267045,49.2448408,C234 - 4500 OAK STREET,Launchpad,DEPARTMENT OF MEDICAL GENETICS
VERNON,-119.2755119,50.2597293,205 - 3301 24TH AVENUE,Accuro,NA
VICTORIA,-123.3647222,48.4283334,PO BOX 5604,Osler,NA
NANAIMO,-123.9415787,49.1643425,105 - 360 SELBY ST,Oscar Host,SUNFLOWER MIDWIFE SERVICE
PENTICTON,-119.5797057,49.4730051,146 DAWSON AVENUE,MedAccess,NA
NANAIMO,-123.9345877,49.1606966,200 - 55  VICTORIA ROAD,Launchpad,VICTORIA ROAD CLINIC
VICTORIA,-123.3524606,48.4254293,304 - 1120 YATES STREET,MedAccess,NA
NANAIMO,-123.9439826,49.1685487,512 CAMPBELL STREET,Launchpad,TOWNSITE MEDICAL CLINIC
CHILLIWACK,-121.9591197,49.1692838,402 - 9200 MARY STREET,Plexia,NA
VICTORIA,-123.3712656,48.4167534,547 MICHIGAN STREET,Oscar,CO-OP COMMUNITY HEALTH AT JAMES BAY
MAPLE RIDGE,-122.6032284,49.2175021,22338 SELKIRK AVENUE,Accuro,NA
VANCOUVER,-123.1289966,49.2805979,B180 - 1081 BURRARD STREET,Launchpad,HEALTHY HEART PROGRAM PREVENTION CLINIC
NAKUSP,-117.7979456,50.2383921,PO BOX 159 - 84 BROADWAY,Wolf,SADDLE MOUNTAIN MEDICAL CLINIC
KAMLOOPS,-120.3198926,50.6747136,851 SEYMOUR STREET,MOIS,THOMPSON RIVERS MEDICAL
VICTORIA,-123.3383175,48.4127734,16 ? 1594 FAIRFIELD RD,Osler,ROSS BAY HEALTH CENTRE
CAMPBELL RIVER,-125.1285261,49.869549,2207 GLENMORE RD,Oscar,THE BRIDGE MEDICAL CLINIC
VICTORIA,-123.3328186,48.4685611,103 - 1595 MCKENZIE AVENUE,Launchpad,GORDON HEAD TREATMENT CENTRE
ABBOTSFORD,-122.3246453,49.0539612,102 - 2845 CRUICKSHANK STREET,IntraHealth,NA
WESTBANK,-119.6105515,49.8386561,107/108 - 3500 CARRINGTON ROAD,Oscar West,VINTAGE VIEW MEDICAL CLINIC
VICTORIA,-123.3533691,48.4239009,107 - 1175 COOK STREET,Launchpad,COOK ST MEDICAL CLINIC
VICTORIA,-123.3293646,48.4294305,1823 FORT STREET,MedAccess,JUBILEE CLINIC PHYSICIANS
PORT ALBERNI,-124.801326,49.2513001,4565 WALLACE STREET,Launchpad,NA
VICTORIA,-123.3337925,48.4449543,380 - 1641 HILLSIDE AVENUE,Plexia,NA
CAMPBELL RIVER,-125.2587844,50.0333382,B - 1424 ISLAND HIGHWAY,Oscar West,RIVER CITY MEDICAL CLINIC
VANCOUVER,-123.1259148,49.2611413,2775 LAUREL STREET - 5TH FLR,Accuro,NA
VICTORIA,-123.3266597,48.4266748,1862 OAK BAY AVENUE,MedAccess,NA
NEW WESTMINSTER,-122.8923133,49.2252694,208 - 250 KEARY STREET,Accuro,NA
KELOWNA,-119.3974992,49.8913212,202 - 285 AURORA CRESCENT,IntraHealth,RUTLAND MEDICAL ASSOCIATES
QUATHIASKI COVE,-125.2103556,50.0418904,"672 PLAZA ROAD, PO BOX 250",Oscar Nerd,HARBOURSIDE MEDICAL
QUESNEL,-122.4977902,52.978123,348 FRONT STREET,Osler,HOLLEY CLINIC
VICTORIA,-123.3123953,48.4635137,PO BOX 1700 - STN CSC,Accuro,UNIVERSITY HEALTH SERV
BRENTWOOD BAY,-123.449952,48.5781126,7226 WEST SAANICH ROAD,Plexia,NA
VICTORIA,-123.382545,48.4866862,207 - 4400 CHATTERTON WAY,eIVF,VICTORIA FERTILITY CLINIC
COURTENAY,-124.9969041,49.6885853,UNIT E-310 8TH STREET,Intrahealth,VALLEY CARE MEDICAL
NANAIMO,-123.9774969,49.1812858,102 - 1629 TOWNSITE ROAD,Osler,NA
VICTORIA,-123.3337976,48.4484534,150 - 3200 SHELBOURNE STREET,Wolf,NA
VICTORIA,-123.334592,48.4267034,101 - 1640 OAK BAY AVENUE,MedAccess,NA
COURTENAY,-124.9944659,49.6860442,202 - 1350 ENGLAND AVENUE,IntraHealth,COURTENAY MEDICAL ASSOCIATES
VICTORIA,-123.3741351,48.4158506,100 - 230 MENZIES STREET,Launchpad,JAMES BAY TREATMENT CENTRE
SURREY,-122.7813232,49.1667441,4-9025 160 ST,IntraHealth,NA
VANCOUVER,-123.1259148,49.2611413,3RD FL - 2775 LAUREL STREET,Plexia,VGH COMPLEX JOINT RECONSTRUCTION CLINIC
VICTORIA,-123.3234804,48.4325466,326 - 1964 FORT STREET,Launchpad,NA
ABBOTSFORD,-122.2734308,49.057181,480 - 3033 IMMEL ROAD,Osler,NA
HOPE,-121.4398372,49.3814755,PO BOX 1000 - 735 4TH AVENUE,Wolf,HOPE MEDICAL CLINIC
KELOWNA,-119.4760365,49.8765707,1111 SPRINGFIELD ROAD,MedAccess,GROUP ONE MEDICAL
COMOX,-124.9261093,49.6730325,101B - 1771 COMOX AVENUE,IntraHealth,TOWN CIRCLE MEDICAL
CAMPBELL RIVER,-125.2402053,50.0236942,108 - 911 ISLAND HWY,Accuro,NA
LANGLEY,-122.6123667,49.0948791,22051 FRASER HIGHWAY,Accuro,LMH - PEDIATRICS
PORT HARDY,-127.5024595,50.7210678,"9140 GRANVILLE STREET, PO BOX 1619",Intrahealth,PRIMARY HEALTH CLINIC
VICTORIA,-123.3284932,48.426703,303C - 1830 OAK BAY AVENUE,Launchpad,NA
DUNCAN,-123.7108344,48.7795251,335 JUBILEE STREET,MedAccess,VALLEY MEDICAL CLINIC
DUNCAN,-123.7024269,48.7777405,341 FESTUBERT STREET,MOIS,NA
SALMON ARM,-119.2824431,50.7019232,PO BOX 32  302 - 320 ALEXANDER STREET,Wolf,MONTEBELLO MEDICAL CLINIC
NANAIMO,-123.9809177,49.1836371,205-1808 BOWEN ROAD,Intrahealth,LEXITOR MEDICAL CLINIC
PENTICTON,-119.5882759,49.483252,22 - 88 DUNCAN AVENUE WEST,MedAccess,NA
COMOX,-124.9255823,49.6718759,202-1757 BEAUFORT AVE,Oscar,WHITEWAVE MEDICAL
COURTENAY,-125.0007286,49.6923804,343 3RD STREET,Oscar,COMOX VALLEY MIDWIFERY BIRTH TIDES CLINIC
MILL BAY,-123.5585109,48.6513996,230 - 2720 MILL BAY ROAD,MedAccess,MILL BAY MEDICAL CLINIC
NORTH VANCOUVER,-123.0711585,49.3196664,405 - 125 EAST 13TH STREET,Plexia,NA
SALTSPRING ISLAND,-123.5104388,48.8633143,101 - 164 KINGS LANE,Oscar Nerd,KINGS LANE MEDICAL CLINIC
LANGLEY,-122.6114124,49.096327,303 - 22112 52ND AVENUE,IntraHealth,LANGLEY PRIMARY HEALTH
BURNABY,-122.9672993,49.2802732,6548 EAST HASTINGS STREET,Oscar,KENSINGTON MEDICAL CLINIC
WEST KELOWNA,-119.6157095,49.837098,105 - 2231 LOUIE DRIVE,Launchpad,WEST KELOWNA WALK-IN
SURREY,-122.7832354,49.0491833,101 - 15820 26TH AVENUE,Accuro,SERENO GYNECOLOGY
CRESTON,-116.5097194,49.0957617,PO BOX 1700,IntraHealth,203-1230 CANYON STREET
COMOX,-124.9007425,49.6837542,1 -1261 NOEL AVENUE,Plexia,NA
VANCOUVER,-123.1259148,49.2611413,3RD FL - 2775 LAUREL STREET,Plexia,NA
VANCOUVER,-123.1262048,49.2455931,K4 - 120 - 4480 OAK STREET,Launchpad,BCCH RHEUMATOLOGY CLINIC
NANAIMO,-123.9685084,49.18371,1165 DUFFERIN CRESCENT,Accuro,NANAIMO HOSPITAL
NORTH VANCOUVER,-123.0725123,49.3184531,300 - 1133 LONSDALE AVENUE,IntraHealth,NORTH SHORE MEDICAL GROUP
NANAIMO,-123.968844,49.1848149,1665 GRANT AVENUE,Launchpad,NANAIMO PUBLIC HEALTH UNIT
VICTORIA,-123.3536948,48.453768,3359 SALSBURY WAY,Launchpad,NA
NORTH VANCOUVER,-123.0708344,49.3217472,204 - 135 EAST 15TH STREET,Launchpad,NA
NORTH VANCOUVER,-123.0718632,49.3191811,401-1200 LONSDALE AVENUE,Plexia,NA
SURREY,-122.8894631,49.1325667,103 - 7130 120TH STREET,Launchpad,NA
COQUITLAM,-122.8566851,49.2348404,1301 LOUGHEED HWY,Wolf,GOOD HEALTH FAMILY MEDICINE
VANCOUVER,-123.1210594,49.2630115,1314 - 750 WEST BROADWAY,Osler,NA
KELOWNA,-119.491564,49.8673113,2606 PANDOSY STREET,iClinic,NA
MAYNE ISLAND,-123.2880882,48.8470799,201 - 526 FELIX JACK ROAD,Wolf,MAYNE ISLAND HEALTH CENTRE
CAMPBELL RIVER,-125.1286178,49.8698329,2207F GLENMORE ROAD,Oscar,BRIDGE MEDICAL CLINIC
OLIVER,-119.5546465,49.1803173,PO BOX 1708,MedAccess,NA
CHILLIWACK,-121.9599871,49.1681443,9146 MARY STREET,Oscar West,NA
PRINCE GEORGE,-122.7658118,53.9152453,407 - 2155 10TH AVENUE,MOIS,NA
RICHMOND,-123.0927618,49.1845133,180 - 11700 CAMBIE ROAD,Oscar Nerd,HEALTHVUE MEDICAL CLINIC - CAMBIE
VICTORIA,-123.3337925,48.4449543,215 - 3066 SHELBOURNE STREET,IntraHealth,DOCTORS MEDICAL CLINIC
VICTORIA,-123.3234804,48.4325466,206 - 1964 FORT STREET,Osler,NA
LANGLEY,-122.6114124,49.096327,302 - 22112 52ND AVENUE,Intrahealth,NA
NORTH VANCOUVER,-123.0711585,49.3196664,209 - 125 EAST 13TH STREET,Osler,NA
NANAIMO,-124.0235581,49.2260183,101 - 5281 RUTHERFORD ROAD,Plexia,NA
KAMLOOPS,-120.3337885,50.6716368,204 - 300 COLUMBIA STREET,MedAccess,NA
PARKSVILLE,-124.311055,49.3185591,PO BOX 1141 - 135 JENSEN AVENUE EAST,Launchpad,JENSEN MEDICAL CLINIC
PORT ALBERNI,-124.8107472,49.2607116,4711 ELIZABETH ST,Osler,NA
VANCOUVER,-123.090245,49.2303876,102 - 5990 FRASER STREET,MedAccess,NA
VANCOUVER,-123.155873,49.2363001,300 - 5511 WEST BOULEVARD,Launchpad,RAINBOW MEDICAL CLINIC
VANCOUVER,-123.1165019,49.2866059,800 - 900 WEST HASTINGS ST,Launchpad,MEDISYS HEALTH GROUP
VANCOUVER,-123.1249085,49.2800387,300 808 NELSON ST,IntraHealth,COPEMAN HEALTHCARE CENTRE
VANCOUVER,-123.1165444,49.262936,731 - 550 WEST BROADWAY,IntraHealth,HIGHROADS MEDICAL CLINIC
WHITE ROCK,-122.7945119,49.0295511,101 - 15451 RUSSELL AVENUE,IntraHealth,WHITE ROCK MEDICAL
ABBOTSFORD,-122.2946872,49.0409501,4 - 2151 MCCALLUM ROAD,EHR Plus,CANNON CLINIC
BURNABY,-123.0043494,49.2250085,410 - 4460 BERESFORD STREET,Plexia,NA
SAANICHTON,-123.4192059,48.5943014,204 - 1931 MT NEWTON CROSS ROAD,MedAccess,NA
PENTICTON,-119.5902773,49.4963342,465 ELLIS STREET,MedAccess,NA
NANAIMO,-123.9439826,49.1685487,512 CAMPBELL STREET,Launchpad,NA
PENTICTON,-119.5902773,49.4963342,465 ELLIS STREET,MedAccess,NA
KELOWNA,-119.4918021,49.8608417,204 - 3140 LAKESHORE ROAD,Osler,NA
CHILLIWACK,-121.9578967,49.1360224,104 - 45744 GAETZ STREET,Oscar West,GAETZ STREET FAMILY MEDICINE
DAWSON CREEK,-120.2327642,55.7582525,1113 103RD AVENUE,Launchpad,NA
BURNABY,-123.0158079,49.2808069,200 - 4012 EAST HASTINGS STREET,Oscar,NORBURN MEDICAL CLINIC
VICTORIA,-123.3337976,48.4484534,150 - 3200 SHELBOURNE STREET,Wolf,SHELBOURNE MEDICAL CLINIC
MILL BAY,-123.5585109,48.6513996,230 - 2720 MILL BAY ROAD,MedAccess,MILL BAY MEDICAL CLINIC
CHILLIWACK,-121.9638335,49.166828,45600 MENHOLM ROAD,Oscar Nerd,CHILLIWACK GENERAL HOSPITAL
SUMMERLAND,-119.6812158,49.6022788,13214 KELLY AVENUE,MedAccess,KELLY AVENUE MEDICAL CLINIC
VICTORIA,-123.3228272,48.4324038,201 - 1990 FORT STREET,Accuro,TRANSPLANT FILE
VERNON,-119.2775394,50.2624892,3 - 2802 34TH STREET,Launchpad,NORTH OKANAGAN PAEDIATRIC CLINIC
COMOX,-124.9230016,49.6720753,100 - 1695 COMOX AVENUE,Wolf,COMOX MEDICAL CLINIC
VICTORIA,-123.3391529,48.4259794,1520 FORT STREET,IntraHealth,PACIFIC HEMATOLOGY
DUNCAN,-123.7081361,48.7857933,201-2763 BEVERLY STREET,MedAccess,BEVERLY MEDICAL CLINIC
VERNON,-119.2739928,50.2842468,204- 5100 ANDERSON WAY,MedAccess,BX MEDICAL
VICTORIA,-123.4264531,48.4475028,205 - 1497 ADMIRALS ROAD,Oscar Nerd,GROW CLINIC
VICTORIA,-123.3731002,48.4544042,301 - 3491 SAANICH ROAD,MedAccess,SAANICH MEDICAL CENTRE
SURREY,-122.8034027,49.1046774,105-15153 HIGHWAY 10,Oscar Nerd,COMMUNITY BIRTH PROGRAM
VICTORIA,-123.3538831,48.4221912,101-1005 COOK ST,Launchpad,COOK ST COMMUNITY MIDWIVES
PORT COQUITLAM,-122.778575,49.2631852,101 - 2255 ELGIN AVENUE,MedAccess,ELGIN MEDICAL CLINIC
VICTORIA,-123.3576434,48.455102,3461 COOK STREET,Oscar West,COOK & QUADRA MEDICAL CLINIC
VANCOUVER,-123.1226675,49.2731876,1296 PACIFIC BOULEVARD,Intrahealth,YALETOWN MEDICAL CLINIC
NORTH VANCOUVER,-123.0725123,49.3184531,300 - 1133 LONSDALE AVENUE,IntraHealth,NA
NANAIMO,-124.0462094,49.233553,6475 METRAL DRIVE- 3RD FLR,Launchpad,CENTRAL VANCOUVER ISLAND HEALTH
QUALICUM BEACH,-124.4456315,49.3461809,173 FERN ROAD WEST,Wolf,NA
MAPLE RIDGE,-122.6073795,49.2208137,B - 22195 DEWDNEY TRUNK ROAD,IntraHealth,NA
VANCOUVER,-123.1409998,49.207388,8675 GRANVILLE STREET,MedAccess,NA
VERNON,-119.2749533,50.260264,303 - 3210 25TH AVENUE,Accuro,NOW HEALTH
RICHMOND,-123.1483045,49.1697558,208 - 6051 GILBERT ROAD,Wolf,NA
VICTORIA,-123.3491162,48.415768,1282 FAIRFIELD ROAD,IntraHealth,MOSS ROCK MEDICAL CENTRE
COQUITLAM,-122.7934129,49.2735462,142 - 3000 LOUGHEED HWY,Oscar Nerd,TRI-CITY FAMILY PRACTICE
NORTH VANCOUVER,-123.070512,49.3196669,501 - 145 EAST 13TH STREET,Osler,NA
NORTH VANCOUVER,-123.072296,49.3230612,201-101 16TH STREET WEST,Plexia,NA
PRINCE GEORGE,-122.7589713,53.9085495,101 - 1668 TAMARACK STREET,Launchpad,NA
VICTORIA,-123.3302199,48.4305343,302 - 2020 RICHMOND AVENUE,Plexia,NA
VICTORIA,-123.3123953,48.4635137,PO BOX 1700 STN CSC,Accuro,UVIC HEALTH SERVICES
VANCOUVER,-123.0320626,49.2374947,3425 CROWLEY DRIVE,Intrahealth VCH,BRIDGE COMMUNITY HEALTH CLINIC
VANCOUVER,-123.1398271,49.2694373,517 - 1540 WEST 2ND AVENUE,Launchpad,PACIFIC MIDWIFERY
NORTH VANCOUVER,-123.070512,49.3196669,704 - 145 EAST 13TH STREET,Osler,NA
VERNON,-119.2784358,50.2655593,3411 32ND AVENUE,Osler,NA
DUNCAN,-123.7108344,48.7795251,335 JUBILEE STREET,MedAccess,VALLEY MEDICAL CLINIC
COMOX,-124.9014145,49.7164864,BOX 1000 STATION MAIN 21CF,Launchpad,HEALTH SERVICES CENTRE
VICTORIA,-123.342568,48.4425235,1454 HILLSIDE AVENUE,Wolf,HILLSIDE SENIORS HEALTH
NEW WESTMINSTER,-122.9154423,49.2001827,140 1005 COLUMBIA STREET,Oscar,NA
MAPLE RIDGE,-122.5997574,49.2199067,600 - 22470 DEWDNEY TRUNK ROAD,Osler,NA
VICTORIA,-123.327759,48.4322939,1952 BAY STREET - HW143 MEMORIAL PAVILLION,Launchpad,RJH NATUROPATH
VANCOUVER,-123.0485374,49.2810994,102 - 2732 EAST HASTINGS STREET,Oscar West,REACH COMMUNITY HEALTH CENTRE
ABBOTSFORD,-122.3185467,49.0502724,310 - 32700 SOUTH FRASER WAY,Wolf,WEST OAKS MEDICAL CENTRE
WHITE ROCK,-122.7993486,49.0278028,1 - 1400 GEORGE STREET,IntraHealth,GEORGE STREET FAMILY PRACTICE
VANCOUVER,-123.1281537,49.2793415,350 - 1144 BURRARD STREET,Accuro,NA
NORTH VANCOUVER,-123.0897298,49.3329847,400 - 2609 WESTVIEW DRIVE,Wolf,NA
LANGLEY,-122.6733484,49.1179171,19851 WILLOWBROOK DRIVE,Launchpad,VALLEY CENTRE MEDICAL CLINIC
COMOX,-124.9255823,49.6718759,201 - 1757 BEAUFORT AVENUE,MedAccess,SEACOVE MEDICAL CLINIC
LAZO,-124.9014145,49.7164864,PO BOX 1000 STATION MAIN,Launchpad,CFB COMOX
VANCOUVER,-123.1259148,49.2611413,2775 LAUREL STREET - 9TH FLR,iClinic,NA
PARKSVILLE,-124.311055,49.3185591,PO BOX 1141 - 135 JENSEN AVENUE EAST,Osler,JENSEN MEDICAL CLINIC
MAPLE RIDGE,-122.6522336,49.2181435,110 - 20528 LOUGHEED HIGHWAY,Osler,MAGETA MEDICAL CLINIC
VICTORIA,-123.3661099,48.4315775,605 DISCOVERY STREET,Accuro,CBI HEALTH CENTRE
VICTORIA,-123.3234804,48.4325466,324 - 1964 FORT STREET,Plexia,NA
NORTH VANCOUVER,-123.0744768,49.3217918,104-145 WEST 15TH STREET,Accuro,NA
SAANICHTON,-123.4188582,48.5947167,1932 MT NEWTON X RD,MedAccess,CENTRAL SAANICH MEDICAL
VICTORIA,-123.3576632,48.4250452,105 - 911 YATES STREET,Oscar,YATES AND QUADRA INTEGRATED HEALTH
SALMON ARM,-119.2792192,50.7039663,102 - 571 6TH STREET NE,MedAccess,SHUSWAP FAMILY PRACTICE
SALMON ARM,-119.2792192,50.7039663,102 - 571 6TH STREET NE,MedAccess,SHUSWAP FAMILY PRACTICE
NANAIMO,-123.9424186,49.1688971,340 CAMPBELL STREET,IntraHealth,CALEDONIAN CLINIC
NEW WESTMINSTER,-122.8923133,49.2252694,301 -  250 KEARY STREET,Launchpad,NA
SURREY,-122.8024067,49.1887304,1000 GUILDFORD TOWN CENTRE,Wolf,WALMART VIVA CARE MEDICAL CLINIC
COURTENAY,-124.9766727,49.6672968,3199 CLIFFE AVENUE,Oscar Nerd,COMOX VALLEY MEDICAL CLINIC
SOOKE,-123.7233483,48.3786355,2050 B TOWNSEND ROAD,Launchpad,NA
RICHMOND,-123.1471647,49.1706805,200 - 7031 WESTMINSTER HIGHWAY,Accuro,NA
PARKSVILLE,-124.3151253,49.3196578,PO BOX 250 - 154 WEST MEMORIAL AVENUE,MedAccess,PARKSVILLE MEDICAL CLINIC
VICTORIA,-123.4252728,48.4731157,1506 Burnside Road West,Oscar Nerd,Roundhouse Midwives
VICTORIA,-123.3308402,48.4300629,1902 RICHMOND ROAD,Oscar West,JUBILEE MEDICAL
KELOWNA,-119.4747087,49.8703519,105 - 2395 GORDON DRIVE,Oscar,GUISACHAN FAMILY MEDICINE
PRINCE GEORGE,-122.7658118,53.9152453,402 - 2155 10TH AVENUE,MOIS,HOY MEDICAL
COMOX,-124.9333003,49.689034,107C - 1966 GUTHRIE ROAD,Oscar Nerd,NA
PORT COQUITLAM,-122.7770807,49.2611585,1 - 2185 WILSON AVENUE,IntraHealth,WILSON CENTRE FAMILY PRACTICE
VANCOUVER,-123.1262048,49.2455931,4480 OAK STREET,Launchpad,BCCH C/O NEUROLOGY RM K3-179
VANCOUVER,-123.1259148,49.2611413,3RD FL - 2775 LAUREL STREET,Plexia,DIV OF PLASTIC SURGERY
COMOX,-124.9278698,49.6729689,203 - 1819 BEAUFORT AVE,Accuro,NA
PRINCE GEORGE,-122.7658118,53.9152453,402-2155-10TH AVENUE,MOIS,HOY MEDICAL CLINIC
LADYSMITH,-123.8204214,48.992235,PO BOX 700 - 541 3RD AVENUE,MedAccess,NA
CAMPBELL RIVER,-125.243085,50.0113996,360 2ND AVENUE,Oscar West,HILLSIDE MEDICAL
VANCOUVER,-123.1540458,49.2338558,2077 WEST 42ND AVENUE,Oscar Nerd,KERRISDALE STATION MEDICAL CLINIC
SURREY,-122.833819,49.1797257,3C 9750 140 STREET,Launchpad,NEUROLOGY CLINIC
VANCOUVER,-123.0358501,49.2592452,3185 GRANDVIEW HWY,Intrahealth,PACIFIC GRANDVIEW MEDICAL
CHILLIWACK,-121.9610562,49.1681573,203 - 9123 MARY STREET,Oscar,NA
VANCOUVER,-123.1251268,49.2636604,140 - 943 WEST BROADWAY,Launchpad,PACIFIC REHAB MEDICAL
SALMON ARM,-119.2792192,50.7039663,PO BOX 852,Osler,NA
WEST VANCOUVER,-123.1581896,49.3278535,250 16TH STREET,Wolf,AMBLESIDE MEDICAL
LANGLEY,-122.6033167,49.1417908,7600 GLOVER ROAD,Osler,WELLNESS CENTER TRINITY UNIVERSITY
PARKSVILLE,-124.3088934,49.3186513,101 - 177 WELD STREET,MedAccess,NA
VANCOUVER,-123.1162884,49.2608664,300 - 555 WEST 12TH AVENUE,eIVF,OLIVE FERTILITY CLINIC
SURREY,-122.8452882,49.1780621,304 - 9656 KING GEORGE BOULEVARD,Launchpad,NA
NEW WESTMINSTER,-122.8933951,49.2253096,207 - 245 EAST COLUMBIA STREET,Accuro,NA
VANCOUVER,-123.0661803,49.2236369,6681 VICTORIA DRIVE,Oscar,NA
VANCOUVER,-123.1149776,49.2494729,4060 CAMBIE STREET,IntraHealth,QE PARK MEDICAL CLINIC
NORTH VANCOUVER,-123.0697176,49.3202668,208 - 168 EAST 13TH ST,Plexia,NA
NORTH VANCOUVER,-123.0711777,49.3217565,102 - 123 EAST 15TH STREET,Plexia,NA
MISSION,-122.3270153,49.1337746,104 - 32423 LOUGHEED HWY,Osler,CEDAR CARE CLINIC
VICTORIA,-123.4884841,48.3970366,246 DELGADA ROAD,Oscar,ME'CHOSEN MEDICAL
VANCOUVER,-123.2427655,49.2660997,228 - 2155 ALLISON ROAD,Oscar,UNIVERSITY VILLAGE MEDICAL CLINIC
POWELL RIVER,-124.5287091,49.8423903,106 - 4675 MARINE AVENUE,Wolf,NA
WEST VANCOUVER,-123.2751322,49.3745863,6422 BAY STREET,Wolf,HORSESHOE BAY FAMILY PRACTICE
VANCOUVER,-123.1259148,49.2611413,2775 LAUREL STREET - 10TH FLR,Accuro,NA
KAMLOOPS,-120.359436,50.6936471,540 TRANQUILLE ROAD,Osler,NA
